{
"type": "FeatureCollection",
"name": "ilocos_norte_osm_poi",
"crs": { "type": "name", "properties": { "name": "urn:ogc:def:crs:OGC:1.3:CRS84" } },
"features": [
{ "type": "Feature", "properties": { "fid": 62, "osm_id": "408764838", "name": "Petron", "barrier": null, "highway": null, "ref": null, "address": null, "is_in": null, "place": null, "man_made": null, "other_tags": "\"addr:city\"=>\"Batac\",\"amenity\"=>\"fuel\",\"brand\"=>\"Petron\",\"brand:wikidata\"=>\"Q7179011\"" }, "geometry": { "type": "Point", "coordinates": [ 120.5565618, 18.0557117 ] } },
{ "type": "Feature", "properties": { "fid": 63, "osm_id": "408764843", "name": "Java Hotel", "barrier": null, "highway": null, "ref": null, "address": null, "is_in": null, "place": null, "man_made": null, "other_tags": "\"addr:city\"=>\"Laoag\",\"addr:street\"=>\"General Segundo Avenue\",\"tourism\"=>\"hotel\"" }, "geometry": { "type": "Point", "coordinates": [ 120.6027327, 18.2094924 ] } },
{ "type": "Feature", "properties": { "fid": 64, "osm_id": "408764846", "name": "Shell", "barrier": null, "highway": null, "ref": null, "address": null, "is_in": null, "place": null, "man_made": null, "other_tags": "\"addr:city\"=>\"Pasuquin\",\"addr:postcode\"=>\"2917\",\"addr:province\"=>\"Ilocos Norte\",\"addr:street\"=>\"Manila North Road\",\"amenity\"=>\"fuel\",\"brand\"=>\"Shell\",\"brand:wikidata\"=>\"Q110716465\"" }, "geometry": { "type": "Point", "coordinates": [ 120.6102936, 18.3182676 ] } },
{ "type": "Feature", "properties": { "fid": 65, "osm_id": "412373896", "name": "Bangui Windmills", "barrier": null, "highway": null, "ref": null, "address": null, "is_in": null, "place": null, "man_made": null, "other_tags": "\"addr:city\"=>\"Bangui\",\"tourism\"=>\"viewpoint\"" }, "geometry": { "type": "Point", "coordinates": [ 120.7036038, 18.5285049 ] } },
{ "type": "Feature", "properties": { "fid": 66, "osm_id": "418172383", "name": null, "barrier": null, "highway": null, "ref": null, "address": null, "is_in": null, "place": null, "man_made": null, "other_tags": "\"addr:city\"=>\"Batac\",\"amenity\"=>\"fuel\"" }, "geometry": { "type": "Point", "coordinates": [ 120.5611712, 18.0673534 ] } },
{ "type": "Feature", "properties": { "fid": 67, "osm_id": "418172388", "name": "Shell", "barrier": null, "highway": null, "ref": null, "address": null, "is_in": null, "place": null, "man_made": null, "other_tags": "\"addr:city\"=>\"Laoag\",\"amenity\"=>\"fuel\",\"brand\"=>\"Shell\",\"brand:wikidata\"=>\"Q110716465\",\"ph:contributor\"=>\"mkmadrid\"" }, "geometry": { "type": "Point", "coordinates": [ 120.5893666, 18.1824832 ] } },
{ "type": "Feature", "properties": { "fid": 68, "osm_id": "418172397", "name": "Metrobank", "barrier": null, "highway": null, "ref": null, "address": null, "is_in": null, "place": null, "man_made": null, "other_tags": "\"addr:city\"=>\"San Nicolas\",\"amenity\"=>\"bank\",\"branch\"=>\"San Nicolas\",\"brand\"=>\"Metrobank\",\"brand:wikidata\"=>\"Q1925799\",\"ph:contributor\"=>\"mkmadrid\"" }, "geometry": { "type": "Point", "coordinates": [ 120.5938562, 18.172136 ] } },
{ "type": "Feature", "properties": { "fid": 69, "osm_id": "418172403", "name": "McDonald's Centro", "barrier": null, "highway": null, "ref": null, "address": null, "is_in": null, "place": null, "man_made": null, "other_tags": "\"addr:city\"=>\"Laoag\",\"addr:postcode\"=>\"2900\",\"addr:province\"=>\"Ilocos Norte\",\"amenity\"=>\"restaurant\",\"brand\"=>\"McDonald's\",\"brand:wikipedia\"=>\"en:McDonald's\",\"brand:wikipedia:es\"=>\"McDonald's\",\"cuisine\"=>\"burger\",\"not:brand:wikidata\"=>\"Q38076\",\"opening_hours\"=>\"24/7\",\"ph:contributor\"=>\"mkmadrid\",\"phone\"=>\"09777717676\",\"takeaway\"=>\"yes\",\"website\"=>\"https://mcdonalds.com.ph/\"" }, "geometry": { "type": "Point", "coordinates": [ 120.5927189, 18.1943543 ] } },
{ "type": "Feature", "properties": { "fid": 70, "osm_id": "418172407", "name": "Herencia De Paoay", "barrier": null, "highway": null, "ref": null, "address": null, "is_in": null, "place": null, "man_made": null, "other_tags": "\"addr:city\"=>\"Paoay\",\"amenity\"=>\"restaurant\",\"ph:contributor\"=>\"mkmadrid\"" }, "geometry": { "type": "Point", "coordinates": [ 120.5201212, 18.0624517 ] } },
{ "type": "Feature", "properties": { "fid": 71, "osm_id": "418172409", "name": "St Therese Hospital", "barrier": null, "highway": null, "ref": null, "address": null, "is_in": null, "place": null, "man_made": null, "other_tags": "\"addr:city\"=>\"San Nicolas\",\"amenity\"=>\"hospital\",\"healthcare\"=>\"hospital\",\"ph:contributor\"=>\"mkmadrid\"" }, "geometry": { "type": "Point", "coordinates": [ 120.5840089, 18.1428831 ] } },
{ "type": "Feature", "properties": { "fid": 72, "osm_id": "418172411", "name": "Hyundai Ilocos Norte", "barrier": null, "highway": null, "ref": null, "address": null, "is_in": null, "place": null, "man_made": null, "other_tags": "\"addr:city\"=>\"San Nicolas\",\"addr:street\"=>\"Manila North Road\",\"branch\"=>\"San Nicolas, IN\",\"brand\"=>\"Hyundai\",\"brand:wikidata\"=>\"Q55931\",\"ph:contributor\"=>\"mkmadrid\",\"shop\"=>\"car\"" }, "geometry": { "type": "Point", "coordinates": [ 120.5859595, 18.1533768 ] } },
{ "type": "Feature", "properties": { "fid": 73, "osm_id": "418172415", "name": "San Nicolas - Batac boundary Gas station", "barrier": null, "highway": null, "ref": null, "address": null, "is_in": null, "place": null, "man_made": null, "other_tags": "\"addr:city\"=>\"Batac\",\"addr:province\"=>\"Ilocos Norte\",\"addr:street\"=>\"Manila North Road\",\"amenity\"=>\"fuel\",\"fuel:diesel\"=>\"yes\",\"ph:contributor\"=>\"mkmadrid\"" }, "geometry": { "type": "Point", "coordinates": [ 120.5741996, 18.1183264 ] } },
{ "type": "Feature", "properties": { "fid": 74, "osm_id": "418172418", "name": "Hap Chan", "barrier": null, "highway": null, "ref": null, "address": null, "is_in": null, "place": null, "man_made": null, "other_tags": "\"addr:city\"=>\"Laoag\",\"amenity\"=>\"restaurant\"" }, "geometry": { "type": "Point", "coordinates": [ 120.5868163, 18.1865115 ] } },
{ "type": "Feature", "properties": { "fid": 75, "osm_id": "418172421", "name": "Yamaha Ilocos Norte", "barrier": null, "highway": null, "ref": null, "address": null, "is_in": null, "place": null, "man_made": null, "other_tags": "\"addr:city\"=>\"San Nicolas\",\"addr:province\"=>\"Ilocos Norte\",\"addr:street\"=>\"Manila North Road\",\"brand\"=>\"Yamaha\",\"brand:wikidata\"=>\"Q158888\",\"ph:contributor\"=>\"mkmadrid\",\"shop\"=>\"motorcycle\"" }, "geometry": { "type": "Point", "coordinates": [ 120.5869052, 18.1568637 ] } },
{ "type": "Feature", "properties": { "fid": 76, "osm_id": "418172428", "name": null, "barrier": null, "highway": null, "ref": null, "address": null, "is_in": null, "place": null, "man_made": null, "other_tags": "\"drinking_water\"=>\"yes\",\"shop\"=>\"water\"" }, "geometry": { "type": "Point", "coordinates": [ 120.5231505, 18.0613097 ] } },
{ "type": "Feature", "properties": { "fid": 77, "osm_id": "418172434", "name": "Flying V", "barrier": null, "highway": null, "ref": null, "address": null, "is_in": null, "place": null, "man_made": null, "other_tags": "\"addr:city\"=>\"Laoag\",\"addr:street\"=>\"Airport Avenue\",\"amenity\"=>\"fuel\",\"brand\"=>\"Flying V\",\"brand:wikidata\"=>\"Q62275048\",\"ph:contributor\"=>\"mkmadrid\"" }, "geometry": { "type": "Point", "coordinates": [ 120.5789125, 18.1877223 ] } },
{ "type": "Feature", "properties": { "fid": 78, "osm_id": "418172441", "name": "BDO", "barrier": null, "highway": null, "ref": null, "address": null, "is_in": null, "place": null, "man_made": null, "other_tags": "\"addr:city\"=>\"Laoag\",\"addr:postcode\"=>\"2900\",\"addr:street\"=>\"J. P. Rizal Avenue\",\"air_conditioning\"=>\"yes\",\"alt_name\"=>\"Banco de Oro\",\"amenity\"=>\"bank\",\"atm\"=>\"yes\",\"branch\"=>\"Laoag\",\"brand\"=>\"BDO\",\"brand:wikidata\"=>\"Q4854129\",\"brand:wikipedia\"=>\"en:Banco de Oro\",\"operator\"=>\"BDO Unibank\",\"ph:contributor\"=>\"mkmadrid\"" }, "geometry": { "type": "Point", "coordinates": [ 120.591898, 18.196493 ] } },
{ "type": "Feature", "properties": { "fid": 79, "osm_id": "418172442", "name": "Honda Cars Ilocos", "barrier": null, "highway": null, "ref": null, "address": null, "is_in": null, "place": null, "man_made": null, "other_tags": "\"addr:city\"=>\"San Nicolas\",\"addr:street\"=>\"Manila North Road\",\"brand\"=>\"Honda\",\"brand:wikidata\"=>\"Q9584\",\"ph:contributor\"=>\"mkmadrid\",\"phone\"=>\"+63 77 655 5880\",\"shop\"=>\"car\",\"website\"=>\"https://www.hondaphil.com/\"" }, "geometry": { "type": "Point", "coordinates": [ 120.5870429, 18.1574985 ] } },
{ "type": "Feature", "properties": { "fid": 81, "osm_id": "611862994", "name": "Polaris Resort", "barrier": null, "highway": null, "ref": null, "address": null, "is_in": null, "place": null, "man_made": null, "other_tags": "\"addr:city\"=>\"Pagudpud\",\"leisure\"=>\"beach_resort\"" }, "geometry": { "type": "Point", "coordinates": [ 120.7864417, 18.5879765 ] } },
{ "type": "Feature", "properties": { "fid": 86, "osm_id": "693137925", "name": "La Preciosa", "barrier": null, "highway": null, "ref": null, "address": null, "is_in": null, "place": null, "man_made": null, "other_tags": "\"amenity\"=>\"restaurant\"" }, "geometry": { "type": "Point", "coordinates": [ 120.5887142, 18.1976926 ] } },
{ "type": "Feature", "properties": { "fid": 87, "osm_id": "693137929", "name": "La Elliana Hotel", "barrier": null, "highway": null, "ref": null, "address": null, "is_in": null, "place": null, "man_made": null, "other_tags": "\"tourism\"=>\"hotel\"" }, "geometry": { "type": "Point", "coordinates": [ 120.588624, 18.198186 ] } },
{ "type": "Feature", "properties": { "fid": 88, "osm_id": "693142421", "name": "Iglesia Ni Cristo", "barrier": null, "highway": null, "ref": null, "address": null, "is_in": null, "place": null, "man_made": null, "other_tags": "\"amenity\"=>\"place_of_worship\",\"denomination\"=>\"iglesia_ni_cristo\",\"religion\"=>\"christian\"" }, "geometry": { "type": "Point", "coordinates": [ 120.6415512, 18.1648752 ] } },
{ "type": "Feature", "properties": { "fid": 89, "osm_id": "693142424", "name": null, "barrier": null, "highway": null, "ref": null, "address": null, "is_in": null, "place": null, "man_made": null, "other_tags": "\"amenity\"=>\"fuel\",\"operator\"=>\"Petron\"" }, "geometry": { "type": "Point", "coordinates": [ 120.6415551, 18.1646026 ] } },
{ "type": "Feature", "properties": { "fid": 91, "osm_id": "693154848", "name": "Sarrat Post Office", "barrier": null, "highway": null, "ref": null, "address": null, "is_in": null, "place": null, "man_made": null, "other_tags": "\"amenity\"=>\"post_office\"" }, "geometry": { "type": "Point", "coordinates": [ 120.6441015, 18.1565933 ] } },
{ "type": "Feature", "properties": { "fid": 94, "osm_id": "693170191", "name": "Laoag Police Station", "barrier": null, "highway": null, "ref": null, "address": null, "is_in": null, "place": null, "man_made": null, "other_tags": "\"amenity\"=>\"police\"" }, "geometry": { "type": "Point", "coordinates": [ 120.5921203, 18.1950292 ] } },
{ "type": "Feature", "properties": { "fid": 117, "osm_id": "1116485184", "name": "Church Garden", "barrier": null, "highway": null, "ref": null, "address": null, "is_in": null, "place": null, "man_made": null, "other_tags": "\"amenity\"=>\"community_centre\"" }, "geometry": { "type": "Point", "coordinates": [ 120.6448634, 18.1551749 ] } },
{ "type": "Feature", "properties": { "fid": 118, "osm_id": "1116485216", "name": "Sta. Monica Convent", "barrier": null, "highway": null, "ref": null, "address": null, "is_in": null, "place": null, "man_made": null, "other_tags": "\"amenity\"=>\"place_of_worship\"" }, "geometry": { "type": "Point", "coordinates": [ 120.6443625, 18.1555563 ] } },
{ "type": "Feature", "properties": { "fid": 119, "osm_id": "1116860383", "name": "PLDT", "barrier": null, "highway": null, "ref": null, "address": null, "is_in": null, "place": null, "man_made": null, "other_tags": "\"addr:city\"=>\"Laoag\",\"amenity\"=>\"telephone\",\"operator\"=>\"PLDT\",\"operator:wikidata\"=>\"Q644167\",\"phone\"=>\"09198869910\"" }, "geometry": { "type": "Point", "coordinates": [ 120.5942028, 18.1976562 ] } },
{ "type": "Feature", "properties": { "fid": 120, "osm_id": "1116860410", "name": "Jollibee", "barrier": null, "highway": null, "ref": null, "address": null, "is_in": null, "place": null, "man_made": null, "other_tags": "\"addr:city\"=>\"Laoag\",\"addr:street\"=>\"General Segundo Avenue\",\"amenity\"=>\"fast_food\",\"branch\"=>\"Bacarra Road\",\"brand\"=>\"Jollibee\",\"brand:wikidata\"=>\"Q37614\",\"cuisine\"=>\"burger\",\"opening_hours\"=>\"24/7\",\"takeaway\"=>\"yes\"" }, "geometry": { "type": "Point", "coordinates": [ 120.59467, 18.1974742 ] } },
{ "type": "Feature", "properties": { "fid": 121, "osm_id": "1116860420", "name": "Max's Restaurant", "barrier": null, "highway": null, "ref": null, "address": null, "is_in": null, "place": null, "man_made": null, "other_tags": "\"addr:city\"=>\"Laoag\",\"amenity\"=>\"restaurant\",\"brand\"=>\"Max's Restaurant\",\"brand:wikidata\"=>\"Q6794477\",\"cuisine\"=>\"asian\"" }, "geometry": { "type": "Point", "coordinates": [ 120.5941725, 18.1957802 ] } },
{ "type": "Feature", "properties": { "fid": 127, "osm_id": "1131068791", "name": "Vintar", "barrier": null, "highway": null, "ref": null, "address": null, "is_in": null, "place": null, "man_made": null, "other_tags": "\"admin_level\"=>\"6\",\"admin_type:PH\"=>\"municipality\",\"amenity\"=>\"townhall\",\"official_name\"=>\"Municipality of Vintar\",\"population\"=>\"32220\",\"population:date\"=>\"2015-08-01\",\"wikidata\"=>\"Q39694\",\"wikimedia_commons\"=>\"Category:Vintar\",\"wikipedia\"=>\"en:Vintar\"" }, "geometry": { "type": "Point", "coordinates": [ 120.6491506, 18.2306726 ] } },
{ "type": "Feature", "properties": { "fid": 145, "osm_id": "1150710532", "name": "Smart", "barrier": null, "highway": null, "ref": null, "address": null, "is_in": null, "place": null, "man_made": null, "other_tags": "\"alt_name\"=>\"Smart Communications\",\"brand\"=>\"Smart\",\"brand:wikidata\"=>\"Q7543955\",\"operator\"=>\"Smart Communications, Inc.\",\"shop\"=>\"telecommunication\"" }, "geometry": { "type": "Point", "coordinates": [ 120.5960543, 18.1947075 ] } },
{ "type": "Feature", "properties": { "fid": 151, "osm_id": "1208921534", "name": null, "barrier": null, "highway": null, "ref": null, "address": null, "is_in": null, "place": null, "man_made": null, "other_tags": "\"amenity\"=>\"parking\"" }, "geometry": { "type": "Point", "coordinates": [ 120.5973158, 18.5120492 ] } },
{ "type": "Feature", "properties": { "fid": 152, "osm_id": "1209016984", "name": "Burgos Municipal Slaugherhouse", "barrier": null, "highway": null, "ref": null, "address": null, "is_in": null, "place": null, "man_made": null, "other_tags": "\"addr:city\"=>\"Burgos\",\"building\"=>\"yes\",\"shop\"=>\"butcher\"" }, "geometry": { "type": "Point", "coordinates": [ 120.6348195, 18.5109543 ] } },
{ "type": "Feature", "properties": { "fid": 154, "osm_id": "1209017027", "name": null, "barrier": null, "highway": null, "ref": null, "address": null, "is_in": null, "place": null, "man_made": null, "other_tags": "\"leisure\"=>\"playground\"" }, "geometry": { "type": "Point", "coordinates": [ 120.6445814, 18.5118115 ] } },
{ "type": "Feature", "properties": { "fid": 155, "osm_id": "1209017045", "name": null, "barrier": null, "highway": null, "ref": null, "address": null, "is_in": null, "place": null, "man_made": null, "other_tags": "\"amenity\"=>\"shelter\",\"shelter_type\"=>\"gazebo\"" }, "geometry": { "type": "Point", "coordinates": [ 120.6444095, 18.5120141 ] } },
{ "type": "Feature", "properties": { "fid": 157, "osm_id": "1229586853", "name": "Golden Pavilion Chinese Restaurant & Night Club", "barrier": null, "highway": null, "ref": null, "address": null, "is_in": null, "place": null, "man_made": null, "other_tags": "\"addr:city\"=>\"Laoag\",\"amenity\"=>\"restaurant\"" }, "geometry": { "type": "Point", "coordinates": [ 120.5225696, 18.1564113 ] } },
{ "type": "Feature", "properties": { "fid": 159, "osm_id": "1229586891", "name": "Passion KTV Bar", "barrier": null, "highway": null, "ref": null, "address": null, "is_in": null, "place": null, "man_made": null, "other_tags": "\"addr:city\"=>\"Laoag\",\"amenity\"=>\"bar\"" }, "geometry": { "type": "Point", "coordinates": [ 120.5226053, 18.1568553 ] } },
{ "type": "Feature", "properties": { "fid": 161, "osm_id": "1229586947", "name": "Fort Ilocandia Front Desk", "barrier": null, "highway": null, "ref": null, "address": null, "is_in": null, "place": null, "man_made": null, "other_tags": "\"addr:city\"=>\"Laoag\",\"tourism\"=>\"information\"" }, "geometry": { "type": "Point", "coordinates": [ 120.5222304, 18.1558375 ] } },
{ "type": "Feature", "properties": { "fid": 162, "osm_id": "1229587027", "name": "FIR Fountain Area", "barrier": null, "highway": null, "ref": null, "address": null, "is_in": null, "place": null, "man_made": null, "other_tags": "\"amenity\"=>\"fountain\"" }, "geometry": { "type": "Point", "coordinates": [ 120.5220775, 18.1567974 ] } },
{ "type": "Feature", "properties": { "fid": 165, "osm_id": "1231039154", "name": "BridgeView Inn", "barrier": null, "highway": null, "ref": null, "address": null, "is_in": null, "place": null, "man_made": null, "other_tags": "\"phone\"=>\"+63 929 973 0873\",\"tourism\"=>\"guest_house\"" }, "geometry": { "type": "Point", "coordinates": [ 120.5600159, 18.1777602 ] } },
{ "type": "Feature", "properties": { "fid": 167, "osm_id": "1231039288", "name": "Green Apartment", "barrier": null, "highway": null, "ref": null, "address": null, "is_in": null, "place": null, "man_made": null, "other_tags": "\"addr:city\"=>\"Laoag\",\"shop\"=>\"general\"" }, "geometry": { "type": "Point", "coordinates": [ 120.5660989, 18.1846579 ] } },
{ "type": "Feature", "properties": { "fid": 169, "osm_id": "1231083151", "name": "CDM Marios Bar & Restaurant", "barrier": null, "highway": null, "ref": null, "address": null, "is_in": null, "place": null, "man_made": null, "other_tags": "\"addr:city\"=>\"Laoag\",\"addr:street\"=>\"Federico Fariñas Avenue\",\"amenity\"=>\"restaurant\",\"name:en\"=>\"CDM Marios Bar & Restaurant\"" }, "geometry": { "type": "Point", "coordinates": [ 120.5321586, 18.156399 ] } },
{ "type": "Feature", "properties": { "fid": 170, "osm_id": "1231083211", "name": "Laoag City Police Station", "barrier": null, "highway": null, "ref": null, "address": null, "is_in": null, "place": null, "man_made": null, "other_tags": "\"amenity\"=>\"police\"" }, "geometry": { "type": "Point", "coordinates": [ 120.5291228, 18.152463 ] } },
{ "type": "Feature", "properties": { "fid": 171, "osm_id": "1231083276", "name": "Joker Bakery", "barrier": null, "highway": null, "ref": null, "address": null, "is_in": null, "place": null, "man_made": null, "other_tags": "\"addr:city\"=>\"Laoag\",\"addr:street\"=>\"Federico Fariñas Avenue\",\"shop\"=>\"bakery\"" }, "geometry": { "type": "Point", "coordinates": [ 120.5284537, 18.1521772 ] } },
{ "type": "Feature", "properties": { "fid": 172, "osm_id": "1231795900", "name": null, "barrier": null, "highway": null, "ref": null, "address": null, "is_in": null, "place": null, "man_made": null, "other_tags": "\"leisure\"=>\"pitch\",\"sport\"=>\"basketball\"" }, "geometry": { "type": "Point", "coordinates": [ 120.5254539, 18.1173598 ] } },
{ "type": "Feature", "properties": { "fid": 173, "osm_id": "1231795927", "name": "Lake Paoay History", "barrier": null, "highway": null, "ref": null, "address": null, "is_in": null, "place": null, "man_made": null, "other_tags": "\"addr:street\"=>\"Pias-Currimao-Balaccad Road\",\"addr:town\"=>\"Paoay\",\"information\"=>\"board\",\"tourism\"=>\"information\"" }, "geometry": { "type": "Point", "coordinates": [ 120.5266304, 18.1192945 ] } },
{ "type": "Feature", "properties": { "fid": 174, "osm_id": "1231795964", "name": null, "barrier": null, "highway": null, "ref": null, "address": null, "is_in": null, "place": null, "man_made": null, "other_tags": "\"amenity\"=>\"toilets\"" }, "geometry": { "type": "Point", "coordinates": [ 120.5266224, 18.1192509 ] } },
{ "type": "Feature", "properties": { "fid": 175, "osm_id": "1231795996", "name": "Aleli Joy's Inabel Loom Woven Cloth", "barrier": null, "highway": null, "ref": null, "address": null, "is_in": null, "place": null, "man_made": null, "other_tags": "\"addr:city\"=>\"Paoay\",\"addr:street\"=>\"Pias-Currimao-Balaccad Road\",\"shop\"=>\"clothes\"" }, "geometry": { "type": "Point", "coordinates": [ 120.5234381, 18.1139914 ] } },
{ "type": "Feature", "properties": { "fid": 177, "osm_id": "1231796125", "name": null, "barrier": null, "highway": null, "ref": null, "address": null, "is_in": null, "place": null, "man_made": null, "other_tags": "\"addr:city\"=>\"Paoay\",\"addr:street\"=>\"Pias-Currimao-Balaccad Road\",\"amenity\"=>\"shelter\",\"building\"=>\"yes\"" }, "geometry": { "type": "Point", "coordinates": [ 120.5267097, 18.1192973 ] } },
{ "type": "Feature", "properties": { "fid": 178, "osm_id": "1231895202", "name": "DPWH - Ilocos Norte Engineering District", "barrier": null, "highway": null, "ref": null, "address": null, "is_in": null, "place": null, "man_made": null, "other_tags": "\"addr:city\"=>\"San Nicolas\",\"amenity\"=>\"public_building\"" }, "geometry": { "type": "Point", "coordinates": [ 120.5789147, 18.1280207 ] } },
{ "type": "Feature", "properties": { "fid": 180, "osm_id": "1231895488", "name": "Cebuana Lhuillier", "barrier": null, "highway": null, "ref": null, "address": null, "is_in": null, "place": null, "man_made": null, "other_tags": "\"addr:city\"=>\"San Nicolas\",\"shop\"=>\"pawnbroker\"" }, "geometry": { "type": "Point", "coordinates": [ 120.5939594, 18.1744942 ] } },
{ "type": "Feature", "properties": { "fid": 181, "osm_id": "1231895496", "name": "C.M. Dancel Construction Supply", "barrier": null, "highway": null, "ref": null, "address": null, "is_in": null, "place": null, "man_made": null, "other_tags": "\"addr:city\"=>\"San Nicolas\",\"shop\"=>\"hardware\"" }, "geometry": { "type": "Point", "coordinates": [ 120.5821704, 18.1835631 ] } },
{ "type": "Feature", "properties": { "fid": 182, "osm_id": "1231895511", "name": "Alelix Hotel", "barrier": null, "highway": null, "ref": null, "address": null, "is_in": null, "place": null, "man_made": null, "other_tags": "\"addr:city\"=>\"San Nicolas\",\"addr:street\"=>\"Manila North Road\",\"tourism\"=>\"guest_house\"" }, "geometry": { "type": "Point", "coordinates": [ 120.590558, 18.1649222 ] } },
{ "type": "Feature", "properties": { "fid": 183, "osm_id": "1231895547", "name": "Yamaha", "barrier": null, "highway": null, "ref": null, "address": null, "is_in": null, "place": null, "man_made": null, "other_tags": "\"addr:city\"=>\"Laoag\",\"brand\"=>\"Yamaha\",\"brand:wikidata\"=>\"Q158888\",\"shop\"=>\"motorcycle\"" }, "geometry": { "type": "Point", "coordinates": [ 120.58942, 18.1837598 ] } },
{ "type": "Feature", "properties": { "fid": 185, "osm_id": "1232021143", "name": "Poblacion Uno Barangay Hall", "barrier": null, "highway": null, "ref": null, "address": null, "is_in": null, "place": null, "man_made": null, "other_tags": "\"addr:city\"=>\"Currimao\",\"amenity\"=>\"public_building\"" }, "geometry": { "type": "Point", "coordinates": [ 120.4820145, 18.0172933 ] } },
{ "type": "Feature", "properties": { "fid": 186, "osm_id": "1232021206", "name": "Tapao-Tigue Day Care Center", "barrier": null, "highway": null, "ref": null, "address": null, "is_in": null, "place": null, "man_made": null, "other_tags": "\"addr:barangay\"=>\"Tapao-Tigue\",\"addr:city\"=>\"Currimao\",\"addr:street\"=>\"Pias-Currimao-Balaccad Road\",\"amenity\"=>\"kindergarten\"" }, "geometry": { "type": "Point", "coordinates": [ 120.4958236, 18.029232 ] } },
{ "type": "Feature", "properties": { "fid": 188, "osm_id": "1232318459", "name": "628 Pharmacy", "barrier": null, "highway": null, "ref": null, "address": null, "is_in": null, "place": null, "man_made": null, "other_tags": "\"addr:city\"=>\"Paoay\",\"amenity\"=>\"pharmacy\"" }, "geometry": { "type": "Point", "coordinates": [ 120.5224123, 18.0619397 ] } },
{ "type": "Feature", "properties": { "fid": 189, "osm_id": "1232318525", "name": "Paoay Church Parking Area", "barrier": null, "highway": null, "ref": null, "address": null, "is_in": null, "place": null, "man_made": null, "other_tags": "\"addr:city\"=>\"Paoay\",\"amenity\"=>\"parking\"" }, "geometry": { "type": "Point", "coordinates": [ 120.5213567, 18.0620868 ] } },
{ "type": "Feature", "properties": { "fid": 190, "osm_id": "1232318528", "name": "Dunkin' Donuts", "barrier": null, "highway": null, "ref": null, "address": null, "is_in": null, "place": null, "man_made": null, "other_tags": "\"addr:city\"=>\"Paoay\",\"amenity\"=>\"fast_food\",\"brand\"=>\"Dunkin' Donuts\",\"brand:wikidata\"=>\"Q847743\",\"brand:wikipedia\"=>\"en:Dunkin' Donuts\",\"cuisine\"=>\"donut;coffee_shop\",\"takeaway\"=>\"yes\"" }, "geometry": { "type": "Point", "coordinates": [ 120.5225598, 18.0618863 ] } },
{ "type": "Feature", "properties": { "fid": 191, "osm_id": "1232318564", "name": "Unique General Merchandise", "barrier": null, "highway": null, "ref": null, "address": null, "is_in": null, "place": null, "man_made": null, "other_tags": "\"shop\"=>\"convenience\"" }, "geometry": { "type": "Point", "coordinates": [ 120.5224684, 18.0619199 ] } },
{ "type": "Feature", "properties": { "fid": 194, "osm_id": "1232598312", "name": "Metrobank", "barrier": null, "highway": null, "ref": null, "address": null, "is_in": null, "place": null, "man_made": null, "other_tags": "\"addr:city\"=>\"Batac\",\"addr:postcode\"=>\"2906\",\"addr:street\"=>\"Washington Street\",\"amenity\"=>\"bank\",\"branch\"=>\"Batac\",\"brand\"=>\"Metrobank\",\"brand:facebook\"=>\"https://www.facebook.com/metrobank\",\"brand:website\"=>\"https://metrobank.com.ph/home\",\"brand:wikidata\"=>\"Q1925799\",\"brand:wikipedia\"=>\"en:Metrobank (Philippines)\",\"name:en\"=>\"Metrobank\",\"name:zh\"=>\"首都銀行\",\"operator\"=>\"Metropolitan Bank and Trust Company\"" }, "geometry": { "type": "Point", "coordinates": [ 120.5647017, 18.0560575 ] } },
{ "type": "Feature", "properties": { "fid": 195, "osm_id": "1232598373", "name": "Police Assistance Center 1", "barrier": null, "highway": null, "ref": null, "address": null, "is_in": null, "place": null, "man_made": null, "other_tags": "\"addr:city\"=>\"Batac\",\"addr:street\"=>\"Marcos Avenue\",\"amenity\"=>\"police\",\"operator\"=>\"Philippine National Police\",\"operator:short\"=>\"PNP\",\"operator:wikidata\"=>\"Q963772\"" }, "geometry": { "type": "Point", "coordinates": [ 120.5574463, 18.0555645 ] } },
{ "type": "Feature", "properties": { "fid": 196, "osm_id": "1232598439", "name": "Mercury Drug", "barrier": null, "highway": null, "ref": null, "address": null, "is_in": null, "place": null, "man_made": null, "other_tags": "\"addr:city\"=>\"Batac\",\"addr:postcode\"=>\"2906\",\"amenity\"=>\"pharmacy\",\"branch\"=>\"Ilocos Norte-Washington\",\"brand\"=>\"Mercury Drug\",\"brand:facebook\"=>\"https://www.facebook.com/mercurydrugph\",\"brand:website\"=>\"https://www.mercurydrug.com/\",\"brand:wikidata\"=>\"Q6818610\",\"brand:wikipedia\"=>\"en:Mercury Drug\",\"dispensing\"=>\"yes\",\"healthcare\"=>\"pharmacy\",\"payment:cash\"=>\"yes\"" }, "geometry": { "type": "Point", "coordinates": [ 120.564765, 18.0562021 ] } },
{ "type": "Feature", "properties": { "fid": 197, "osm_id": "1232598486", "name": "Batac Food Plaza", "barrier": null, "highway": null, "ref": null, "address": null, "is_in": null, "place": null, "man_made": null, "other_tags": "\"addr:city\"=>\"Batac\",\"amenity\"=>\"restaurant\"" }, "geometry": { "type": "Point", "coordinates": [ 120.5650634, 18.0551245 ] } },
{ "type": "Feature", "properties": { "fid": 199, "osm_id": "1232690078", "name": "Local Products (kakanin)", "barrier": null, "highway": null, "ref": null, "address": null, "is_in": null, "place": null, "man_made": null, "other_tags": "\"shop\"=>\"confectionery\"" }, "geometry": { "type": "Point", "coordinates": [ 120.5634252, 18.0551815 ] } },
{ "type": "Feature", "properties": { "fid": 200, "osm_id": "1232690135", "name": "ECS Vetcare Animal Clinic", "barrier": null, "highway": null, "ref": null, "address": null, "is_in": null, "place": null, "man_made": null, "other_tags": "\"addr:city\"=>\"Batac\",\"addr:postcode\"=>\"2906\",\"addr:province\"=>\"Ilocos Norte\",\"addr:street\"=>\"Washington Street\",\"amenity\"=>\"veterinary\"" }, "geometry": { "type": "Point", "coordinates": [ 120.5649659, 18.0565493 ] } },
{ "type": "Feature", "properties": { "fid": 201, "osm_id": "1232690143", "name": "Side-Street Parking", "barrier": null, "highway": null, "ref": null, "address": null, "is_in": null, "place": null, "man_made": null, "other_tags": "\"amenity\"=>\"parking\"" }, "geometry": { "type": "Point", "coordinates": [ 120.5632319, 18.0557356 ] } },
{ "type": "Feature", "properties": { "fid": 202, "osm_id": "1232690164", "name": "J.D.C. Auto Supply", "barrier": null, "highway": null, "ref": null, "address": null, "is_in": null, "place": null, "man_made": null, "other_tags": "\"addr:city\"=>\"Batac\",\"shop\"=>\"car_repair\"" }, "geometry": { "type": "Point", "coordinates": [ 120.5649736, 18.0565609 ] } },
{ "type": "Feature", "properties": { "fid": 203, "osm_id": "1232690219", "name": null, "barrier": null, "highway": null, "ref": null, "address": null, "is_in": null, "place": null, "man_made": null, "other_tags": "\"amenity\"=>\"toilets\"" }, "geometry": { "type": "Point", "coordinates": [ 120.5631393, 18.0552604 ] } },
{ "type": "Feature", "properties": { "fid": 205, "osm_id": "1232690243", "name": "Salon de Batac", "barrier": null, "highway": null, "ref": null, "address": null, "is_in": null, "place": null, "man_made": null, "other_tags": "\"addr:city\"=>\"Batac\",\"shop\"=>\"hairdresser\"" }, "geometry": { "type": "Point", "coordinates": [ 120.5650069, 18.0566043 ] } },
{ "type": "Feature", "properties": { "fid": 206, "osm_id": "1232766021", "name": "Jollibee", "barrier": null, "highway": null, "ref": null, "address": null, "is_in": null, "place": null, "man_made": null, "other_tags": "\"addr:city\"=>\"Batac\",\"addr:postcode\"=>\"2906\",\"addr:street\"=>\"Marcos Avenue\",\"amenity\"=>\"fast_food\",\"brand\"=>\"Jollibee\",\"brand:facebook\"=>\"https://www.facebook.com/JollibeePhilippines\",\"brand:website\"=>\"https://www.jollibee.com.ph/\",\"brand:wikidata\"=>\"Q37614\",\"brand:wikipedia\"=>\"en:Jollibee\",\"cuisine\"=>\"burger\",\"delivery\"=>\"yes\",\"drive_through\"=>\"no\",\"payment:cash\"=>\"yes\",\"takeaway\"=>\"yes\"" }, "geometry": { "type": "Point", "coordinates": [ 120.562778, 18.0546411 ] } },
{ "type": "Feature", "properties": { "fid": 207, "osm_id": "1232766038", "name": "Chowking", "barrier": null, "highway": null, "ref": null, "address": null, "is_in": null, "place": null, "man_made": null, "other_tags": "\"addr:city\"=>\"Batac\",\"addr:postcode\"=>\"2906\",\"addr:street\"=>\"Marcos Avenue\",\"amenity\"=>\"fast_food\",\"brand\"=>\"Chowking\",\"brand:facebook\"=>\"https://www.facebook.com/chowkingph\",\"brand:website\"=>\"https://www.chowking.com/\",\"brand:wikidata\"=>\"Q1076816\",\"brand:wikipedia\"=>\"en:Chowking\",\"cuisine\"=>\"asian\",\"delivery\"=>\"yes\",\"drive_through\"=>\"no\",\"name:en\"=>\"Chowking\",\"name:zh\"=>\"超群\",\"payment:cash\"=>\"yes\",\"takeaway\"=>\"yes\"" }, "geometry": { "type": "Point", "coordinates": [ 120.5624128, 18.0547061 ] } },
{ "type": "Feature", "properties": { "fid": 208, "osm_id": "1232828179", "name": "Flying V", "barrier": null, "highway": null, "ref": null, "address": null, "is_in": null, "place": null, "man_made": null, "other_tags": "\"addr:city\"=>\"Batac\",\"addr:postcode\"=>\"2906\",\"addr:street\"=>\"Marcos Avenue\",\"amenity\"=>\"fuel\",\"brand\"=>\"Flying V\",\"brand:facebook\"=>\"https://www.facebook.com/OfficialFlyingV\",\"brand:website\"=>\"http://flyingv.com.ph/\",\"brand:wikidata\"=>\"Q62275048\",\"level\"=>\"0\",\"opening_hours\"=>\"24/7\",\"payment:cash\"=>\"yes\"" }, "geometry": { "type": "Point", "coordinates": [ 120.5623514, 18.0547444 ] } },
{ "type": "Feature", "properties": { "fid": 209, "osm_id": "1233264251", "name": "Batac Post Office", "barrier": null, "highway": null, "ref": null, "address": null, "is_in": null, "place": null, "man_made": null, "other_tags": "\"addr:city\"=>\"Batac\",\"amenity\"=>\"post_office\",\"official_name\"=>\"Philippine Postal Corporation\",\"operator\"=>\"PHLPost\",\"operator:wikidata\"=>\"Q1406037\"" }, "geometry": { "type": "Point", "coordinates": [ 120.5601888, 18.0656579 ] } },
{ "type": "Feature", "properties": { "fid": 210, "osm_id": "1233327824", "name": "17 Tabug Community Center", "barrier": null, "highway": null, "ref": null, "address": null, "is_in": null, "place": null, "man_made": null, "other_tags": "\"addr:city\"=>\"Batac\",\"amenity\"=>\"townhall\",\"operator\"=>\"Barangay 17 Tabug, Batac\",\"townhall:type\"=>\"barangay\"" }, "geometry": { "type": "Point", "coordinates": [ 120.5502974, 18.0425527 ] } },
{ "type": "Feature", "properties": { "fid": 211, "osm_id": "1233344607", "name": "JSA Store", "barrier": null, "highway": null, "ref": null, "address": null, "is_in": null, "place": null, "man_made": null, "other_tags": "\"addr:city\"=>\"Currimao\",\"shop\"=>\"convenience\"" }, "geometry": { "type": "Point", "coordinates": [ 120.4858204, 18.0195249 ] } },
{ "type": "Feature", "properties": { "fid": 212, "osm_id": "1233362374", "name": "Vulcanizing Service", "barrier": null, "highway": null, "ref": null, "address": null, "is_in": null, "place": null, "man_made": null, "other_tags": "\"addr:city\"=>\"Currimao\",\"shop\"=>\"vulcanizing\"" }, "geometry": { "type": "Point", "coordinates": [ 120.5038886, 17.995909 ] } },
{ "type": "Feature", "properties": { "fid": 213, "osm_id": "1233373563", "name": "Brgy Tabug Waiting Shed", "barrier": null, "highway": null, "ref": null, "address": null, "is_in": null, "place": null, "man_made": null, "other_tags": "\"addr:city\"=>\"Batac\",\"amenity\"=>\"shelter\"" }, "geometry": { "type": "Point", "coordinates": [ 120.5571628, 18.0556796 ] } },
{ "type": "Feature", "properties": { "fid": 214, "osm_id": "1233373566", "name": "JN WI Water & Ice", "barrier": null, "highway": null, "ref": null, "address": null, "is_in": null, "place": null, "man_made": null, "other_tags": "\"addr:city\"=>\"Batac\",\"shop\"=>\"general\"" }, "geometry": { "type": "Point", "coordinates": [ 120.5584418, 18.0556044 ] } },
{ "type": "Feature", "properties": { "fid": 216, "osm_id": "1233382121", "name": null, "barrier": null, "highway": null, "ref": null, "address": null, "is_in": null, "place": null, "man_made": null, "other_tags": "\"addr:city\"=>\"Batac\",\"amenity\"=>\"bus_station\"" }, "geometry": { "type": "Point", "coordinates": [ 120.5627264, 18.0551114 ] } },
{ "type": "Feature", "properties": { "fid": 217, "osm_id": "1233388130", "name": "Batac Riverside Empanadahan", "barrier": null, "highway": null, "ref": null, "address": null, "is_in": null, "place": null, "man_made": null, "other_tags": "\"addr:city\"=>\"Batac\",\"amenity\"=>\"food_court\"" }, "geometry": { "type": "Point", "coordinates": [ 120.5641827, 18.0542216 ] } },
{ "type": "Feature", "properties": { "fid": 218, "osm_id": "1233388134", "name": "Sundae Cube Ice", "barrier": null, "highway": null, "ref": null, "address": null, "is_in": null, "place": null, "man_made": null, "other_tags": "\"addr:city\"=>\"Batac\",\"shop\"=>\"general\"" }, "geometry": { "type": "Point", "coordinates": [ 120.5637134, 18.0545251 ] } },
{ "type": "Feature", "properties": { "fid": 219, "osm_id": "1233503550", "name": "Rana-Ann", "barrier": null, "highway": null, "ref": null, "address": null, "is_in": null, "place": null, "man_made": null, "other_tags": "\"amenity\"=>\"fuel\"" }, "geometry": { "type": "Point", "coordinates": [ 120.5628871, 18.0788869 ] } },
{ "type": "Feature", "properties": { "fid": 221, "osm_id": "1233503724", "name": "Floor Center Ceramic & Granite", "barrier": null, "highway": null, "ref": null, "address": null, "is_in": null, "place": null, "man_made": null, "other_tags": "\"addr:city\"=>\"Batac\",\"shop\"=>\"doityourself\"" }, "geometry": { "type": "Point", "coordinates": [ 120.5937634, 18.1720256 ] } },
{ "type": "Feature", "properties": { "fid": 223, "osm_id": "1233503761", "name": "Alexis Bar & Videoke", "barrier": null, "highway": null, "ref": null, "address": null, "is_in": null, "place": null, "man_made": null, "other_tags": "\"addr:city\"=>\"San Nicolas\",\"amenity\"=>\"pub\"" }, "geometry": { "type": "Point", "coordinates": [ 120.5907141, 18.1651598 ] } },
{ "type": "Feature", "properties": { "fid": 224, "osm_id": "1233764738", "name": null, "barrier": null, "highway": null, "ref": null, "address": null, "is_in": null, "place": null, "man_made": null, "other_tags": "\"amenity\"=>\"toilets\"" }, "geometry": { "type": "Point", "coordinates": [ 120.5923578, 18.1966946 ] } },
{ "type": "Feature", "properties": { "fid": 225, "osm_id": "1233813136", "name": "Remdios Drug & Gen. Merchandise", "barrier": null, "highway": null, "ref": null, "address": null, "is_in": null, "place": null, "man_made": null, "other_tags": "\"addr:city\"=>\"Laoag\",\"amenity\"=>\"pharmacy\",\"healthcare\"=>\"pharmacy\"" }, "geometry": { "type": "Point", "coordinates": [ 120.5931858, 18.1949125 ] } },
{ "type": "Feature", "properties": { "fid": 226, "osm_id": "1233839207", "name": "Virgie's Empanadaan", "barrier": null, "highway": null, "ref": null, "address": null, "is_in": null, "place": null, "man_made": null, "other_tags": "\"addr:city\"=>\"Laoag\",\"amenity\"=>\"fast_food\"" }, "geometry": { "type": "Point", "coordinates": [ 120.5917807, 18.1954811 ] } },
{ "type": "Feature", "properties": { "fid": 227, "osm_id": "1233839211", "name": "ilocostop", "barrier": null, "highway": null, "ref": null, "address": null, "is_in": null, "place": null, "man_made": null, "other_tags": "\"addr:city\"=>\"Laoag\",\"addr:street\"=>\"J. P. Rizal Avenue\",\"shop\"=>\"convenience\"" }, "geometry": { "type": "Point", "coordinates": [ 120.5922108, 18.1963424 ] } },
{ "type": "Feature", "properties": { "fid": 228, "osm_id": "1234379294", "name": "Jon's Footwear & General Merchandise", "barrier": null, "highway": null, "ref": null, "address": null, "is_in": null, "place": null, "man_made": null, "other_tags": "\"addr:city\"=>\"Laoag\",\"addr:street\"=>\"F. R. Castro Street\",\"shop\"=>\"shoes\"" }, "geometry": { "type": "Point", "coordinates": [ 120.5954863, 18.1936259 ] } },
{ "type": "Feature", "properties": { "fid": 229, "osm_id": "1234379318", "name": "Rang-ay Bank", "barrier": null, "highway": null, "ref": null, "address": null, "is_in": null, "place": null, "man_made": null, "other_tags": "\"addr:city\"=>\"Laoag\",\"amenity\"=>\"bank\"" }, "geometry": { "type": "Point", "coordinates": [ 120.5960931, 18.1943029 ] } },
{ "type": "Feature", "properties": { "fid": 230, "osm_id": "1234379332", "name": "Villarica", "barrier": null, "highway": null, "ref": null, "address": null, "is_in": null, "place": null, "man_made": null, "other_tags": "\"addr:city\"=>\"Laoag\",\"addr:street\"=>\"J. P. Rizal Avenue\",\"brand\"=>\"Villarica\",\"brand:facebook\"=>\"VillaricaPH\",\"brand:website\"=>\"https://villaricapawnshop.ph\",\"brand:wikidata\"=>\"Q62391438\",\"money_transfer\"=>\"cash_padala\",\"shop\"=>\"pawnbroker\"" }, "geometry": { "type": "Point", "coordinates": [ 120.5940865, 18.1955279 ] } },
{ "type": "Feature", "properties": { "fid": 231, "osm_id": "1234413961", "name": "Chowking Centro", "barrier": null, "highway": null, "ref": null, "address": null, "is_in": null, "place": null, "man_made": null, "other_tags": "\"addr:city\"=>\"Laoag\",\"addr:street\"=>\"F. R. Castro Street\",\"amenity\"=>\"restaurant\",\"brand\"=>\"Chowking\",\"brand:wikipedia\"=>\"en:Chowking\",\"cuisine\"=>\"asian\",\"not:brand:wikidata\"=>\"Q1076816\",\"takeaway\"=>\"yes\"" }, "geometry": { "type": "Point", "coordinates": [ 120.5943706, 18.1941577 ] } },
{ "type": "Feature", "properties": { "fid": 232, "osm_id": "1234413969", "name": "Jollibee Centro", "barrier": null, "highway": null, "ref": null, "address": null, "is_in": null, "place": null, "man_made": null, "other_tags": "\"addr:city\"=>\"Laoag\",\"addr:street\"=>\"F. R. Castro Street\",\"amenity\"=>\"restaurant\",\"brand\"=>\"Jollibee\",\"brand:wikipedia\"=>\"en:Jollibee\",\"cuisine\"=>\"burger\",\"not:brand:wikidata\"=>\"Q37614\",\"takeaway\"=>\"yes\"" }, "geometry": { "type": "Point", "coordinates": [ 120.5947044, 18.193918 ] } },
{ "type": "Feature", "properties": { "fid": 234, "osm_id": "1234448176", "name": "Car Aircon & Repair Shop", "barrier": null, "highway": null, "ref": null, "address": null, "is_in": null, "place": null, "man_made": null, "other_tags": "\"shop\"=>\"car_repair\"" }, "geometry": { "type": "Point", "coordinates": [ 120.599859, 18.2052434 ] } },
{ "type": "Feature", "properties": { "fid": 235, "osm_id": "1234448183", "name": "Petro Gazz", "barrier": null, "highway": null, "ref": null, "address": null, "is_in": null, "place": null, "man_made": null, "other_tags": "\"addr:city\"=>\"Laoag\",\"addr:postcode\"=>\"2900\",\"addr:street\"=>\"General Segundo Avenue\",\"amenity\"=>\"fuel\"" }, "geometry": { "type": "Point", "coordinates": [ 120.596909, 18.2013773 ] } },
{ "type": "Feature", "properties": { "fid": 236, "osm_id": "1234464960", "name": "Makarismos Wines & Spirits", "barrier": null, "highway": null, "ref": null, "address": null, "is_in": null, "place": null, "man_made": null, "other_tags": "\"addr:city\"=>\"Laoag\",\"addr:street\"=>\"J. P. Rizal Avenue\",\"shop\"=>\"alcohol\"" }, "geometry": { "type": "Point", "coordinates": [ 120.5942336, 18.1954707 ] } },
{ "type": "Feature", "properties": { "fid": 237, "osm_id": "1234471851", "name": "Laoag City Tourist Police Station", "barrier": null, "highway": null, "ref": null, "address": null, "is_in": null, "place": null, "man_made": null, "other_tags": "\"addr:city\"=>\"Laoag\",\"addr:street\"=>\"J. P. Rizal Avenue\",\"amenity\"=>\"police\",\"description\"=>\"Tourist assistance center\"" }, "geometry": { "type": "Point", "coordinates": [ 120.5937454, 18.1954943 ] } },
{ "type": "Feature", "properties": { "fid": 238, "osm_id": "1234492424", "name": null, "barrier": null, "highway": null, "ref": null, "address": null, "is_in": null, "place": null, "man_made": null, "other_tags": "\"access\"=>\"yes\",\"addr:city\"=>\"Laoag\",\"addr:street\"=>\"J. P. Rizal Avenue\",\"amenity\"=>\"toilets\"" }, "geometry": { "type": "Point", "coordinates": [ 120.5938354, 18.1954604 ] } },
{ "type": "Feature", "properties": { "fid": 240, "osm_id": "1234609375", "name": "Laoag Newton Construction Supply", "barrier": null, "highway": null, "ref": null, "address": null, "is_in": null, "place": null, "man_made": null, "other_tags": "\"addr:city\"=>\"Laoag\",\"addr:street\"=>\"General Segundo Avenue\",\"shop\"=>\"hardware\"" }, "geometry": { "type": "Point", "coordinates": [ 120.5942279, 18.1958986 ] } },
{ "type": "Feature", "properties": { "fid": 242, "osm_id": "1234609382", "name": "M Lhuillier", "barrier": null, "highway": null, "ref": null, "address": null, "is_in": null, "place": null, "man_made": null, "other_tags": "\"addr:city\"=>\"Laoag\",\"addr:street\"=>\"General Segundo Avenue\",\"brand\"=>\"M Lhuillier\",\"brand:wikidata\"=>\"Q83434356\",\"shop\"=>\"pawnbroker\"" }, "geometry": { "type": "Point", "coordinates": [ 120.594479, 18.1964888 ] } },
{ "type": "Feature", "properties": { "fid": 243, "osm_id": "1234609397", "name": "Security Bank", "barrier": null, "highway": null, "ref": null, "address": null, "is_in": null, "place": null, "man_made": null, "other_tags": "\"addr:city\"=>\"Laoag\",\"addr:street\"=>\"General Segundo Avenue\",\"amenity\"=>\"bank\",\"brand\"=>\"Security Bank\",\"brand:wikidata\"=>\"Q7444945\",\"brand:wikipedia\"=>\"en:Security Bank\"" }, "geometry": { "type": "Point", "coordinates": [ 120.5942828, 18.1960443 ] } },
{ "type": "Feature", "properties": { "fid": 244, "osm_id": "1234609401", "name": "Metrobank", "barrier": null, "highway": null, "ref": null, "address": null, "is_in": null, "place": null, "man_made": null, "other_tags": "\"addr:city\"=>\"Laoag\",\"addr:street\"=>\"General Segundo Avenue\",\"amenity\"=>\"bank\",\"branch\"=>\"Laoag\",\"brand\"=>\"Metrobank\",\"brand:wikidata\"=>\"Q1925799\",\"brand:wikipedia\"=>\"en:Metrobank (Philippines)\"" }, "geometry": { "type": "Point", "coordinates": [ 120.5945288, 18.1965781 ] } },
{ "type": "Feature", "properties": { "fid": 245, "osm_id": "1234609412", "name": "M.G. Bismonte's Pawnshop", "barrier": null, "highway": null, "ref": null, "address": null, "is_in": null, "place": null, "man_made": null, "other_tags": "\"addr:city\"=>\"Laoag\",\"addr:street\"=>\"General Segundo Avenue\",\"shop\"=>\"pawnbroker\"" }, "geometry": { "type": "Point", "coordinates": [ 120.5944089, 18.1963524 ] } },
{ "type": "Feature", "properties": { "fid": 246, "osm_id": "1234641219", "name": "Veterans Bank", "barrier": null, "highway": null, "ref": null, "address": null, "is_in": null, "place": null, "man_made": null, "other_tags": "\"addr:city\"=>\"Laoag\",\"addr:street\"=>\"General Segundo Avenue\",\"amenity\"=>\"bank\"" }, "geometry": { "type": "Point", "coordinates": [ 120.5945802, 18.1967069 ] } },
{ "type": "Feature", "properties": { "fid": 247, "osm_id": "1234641220", "name": "Macy's Diner", "barrier": null, "highway": null, "ref": null, "address": null, "is_in": null, "place": null, "man_made": null, "other_tags": "\"addr:city\"=>\"Laoag\",\"addr:street\"=>\"General Segundo Avenue\",\"amenity\"=>\"restaurant\"" }, "geometry": { "type": "Point", "coordinates": [ 120.5946274, 18.1968115 ] } },
{ "type": "Feature", "properties": { "fid": 248, "osm_id": "1234641221", "name": "police station", "barrier": null, "highway": null, "ref": null, "address": null, "is_in": null, "place": null, "man_made": null, "other_tags": "\"addr:city\"=>\"Laoag\",\"addr:street\"=>\"E. F. Siazon Road\",\"amenity\"=>\"police\"" }, "geometry": { "type": "Point", "coordinates": [ 120.5834082, 18.205291 ] } },
{ "type": "Feature", "properties": { "fid": 249, "osm_id": "1234641224", "name": "Mariwasa Tiles", "barrier": null, "highway": null, "ref": null, "address": null, "is_in": null, "place": null, "man_made": null, "other_tags": "\"addr:city\"=>\"Laoag\",\"addr:street\"=>\"General Segundo Avenue\",\"shop\"=>\"hardware\"" }, "geometry": { "type": "Point", "coordinates": [ 120.5947119, 18.1970115 ] } },
{ "type": "Feature", "properties": { "fid": 250, "osm_id": "1234641225", "name": "Pet 4 Me", "barrier": null, "highway": null, "ref": null, "address": null, "is_in": null, "place": null, "man_made": null, "other_tags": "\"addr:city\"=>\"Laoag\",\"addr:street\"=>\"General Segundo Avenue\",\"shop\"=>\"pet\"" }, "geometry": { "type": "Point", "coordinates": [ 120.5947565, 18.1971344 ] } },
{ "type": "Feature", "properties": { "fid": 252, "osm_id": "1234899709", "name": "Pab's Variety Store", "barrier": null, "highway": null, "ref": null, "address": null, "is_in": null, "place": null, "man_made": null, "other_tags": "\"addr:city\"=>\"Laoag\",\"addr:street\"=>\"General Segundo Avenue\",\"shop\"=>\"convenience\"" }, "geometry": { "type": "Point", "coordinates": [ 120.5980141, 18.2025596 ] } },
{ "type": "Feature", "properties": { "fid": 253, "osm_id": "1234899775", "name": "Tatalaok Roasters", "barrier": null, "highway": null, "ref": null, "address": null, "is_in": null, "place": null, "man_made": null, "other_tags": "\"addr:city\"=>\"Laoag\",\"addr:street\"=>\"General Segundo Avenue\",\"amenity\"=>\"restaurant\",\"cuisine\"=>\"grill\"" }, "geometry": { "type": "Point", "coordinates": [ 120.5989455, 18.2039509 ] } },
{ "type": "Feature", "properties": { "fid": 254, "osm_id": "1234899838", "name": "Petron", "barrier": null, "highway": null, "ref": null, "address": null, "is_in": null, "place": null, "man_made": null, "other_tags": "\"addr:city\"=>\"Laoag\",\"addr:street\"=>\"General Segundo Avenue\",\"amenity\"=>\"fuel\",\"brand\"=>\"Petron\",\"brand:wikidata\"=>\"Q7179011\"" }, "geometry": { "type": "Point", "coordinates": [ 120.6022904, 18.2094679 ] } },
{ "type": "Feature", "properties": { "fid": 255, "osm_id": "1234899851", "name": "HLQ Universal General Merchandise", "barrier": null, "highway": null, "ref": null, "address": null, "is_in": null, "place": null, "man_made": null, "other_tags": "\"addr:city\"=>\"Laoag\",\"addr:street\"=>\"General Segundo Avenue\",\"shop\"=>\"hardware\"" }, "geometry": { "type": "Point", "coordinates": [ 120.5963952, 18.200087 ] } },
{ "type": "Feature", "properties": { "fid": 256, "osm_id": "1234899921", "name": null, "barrier": null, "highway": null, "ref": null, "address": null, "is_in": null, "place": null, "man_made": null, "other_tags": "\"amenity\"=>\"toilets\"" }, "geometry": { "type": "Point", "coordinates": [ 120.60246, 18.2096273 ] } },
{ "type": "Feature", "properties": { "fid": 258, "osm_id": "1234899933", "name": "P&S Marketing", "barrier": null, "highway": null, "ref": null, "address": null, "is_in": null, "place": null, "man_made": null, "other_tags": "\"addr:city\"=>\"Laoag\",\"addr:street\"=>\"General Segundo Avenue\",\"shop\"=>\"hardware\"" }, "geometry": { "type": "Point", "coordinates": [ 120.5958155, 18.1991271 ] } },
{ "type": "Feature", "properties": { "fid": 260, "osm_id": "1234900081", "name": "New Era Industries", "barrier": null, "highway": null, "ref": null, "address": null, "is_in": null, "place": null, "man_made": null, "other_tags": "\"addr:city\"=>\"Laoag\",\"addr:street\"=>\"General Segundo Avenue\",\"shop\"=>\"hardware\"" }, "geometry": { "type": "Point", "coordinates": [ 120.6008587, 18.2072232 ] } },
{ "type": "Feature", "properties": { "fid": 261, "osm_id": "1234900171", "name": null, "barrier": null, "highway": null, "ref": null, "address": null, "is_in": null, "place": null, "man_made": null, "other_tags": "\"addr:city\"=>\"Laoag\",\"addr:street\"=>\"General Segundo Avenue\",\"amenity\"=>\"pharmacy\",\"healthcare\"=>\"pharmacy\"" }, "geometry": { "type": "Point", "coordinates": [ 120.5980504, 18.2026066 ] } },
{ "type": "Feature", "properties": { "fid": 263, "osm_id": "1235899529", "name": "Kings Court Hotel", "barrier": null, "highway": null, "ref": null, "address": null, "is_in": null, "place": null, "man_made": null, "other_tags": "\"addr:city\"=>\"Laoag\",\"addr:street\"=>\"General Segundo Avenue\",\"tourism\"=>\"hotel\"" }, "geometry": { "type": "Point", "coordinates": [ 120.6024275, 18.2113293 ] } },
{ "type": "Feature", "properties": { "fid": 265, "osm_id": "1236130584", "name": "Lily of the Valley", "barrier": null, "highway": null, "ref": null, "address": null, "is_in": null, "place": null, "man_made": null, "other_tags": "\"addr:town\"=>\"Bacarra\",\"amenity\"=>\"place_of_mourning\"" }, "geometry": { "type": "Point", "coordinates": [ 120.6033979, 18.2618667 ] } },
{ "type": "Feature", "properties": { "fid": 267, "osm_id": "1236130780", "name": "Shell", "barrier": null, "highway": null, "ref": null, "address": null, "is_in": null, "place": null, "man_made": null, "other_tags": "\"addr:city\"=>\"Bacarra\",\"addr:postcode\"=>\"2916\",\"addr:province\"=>\"Ilocos Norte\",\"addr:street\"=>\"Manila North Road\",\"amenity\"=>\"fuel\",\"brand\"=>\"Shell\",\"brand:wikidata\"=>\"Q110716465\"" }, "geometry": { "type": "Point", "coordinates": [ 120.6063291, 18.2591961 ] } },
{ "type": "Feature", "properties": { "fid": 268, "osm_id": "1236189449", "name": "The Riverdeep Academy", "barrier": null, "highway": null, "ref": null, "address": null, "is_in": null, "place": null, "man_made": null, "other_tags": "\"addr:city\"=>\"Bacarra\",\"amenity\"=>\"school\"" }, "geometry": { "type": "Point", "coordinates": [ 120.6006029, 18.2814084 ] } },
{ "type": "Feature", "properties": { "fid": 270, "osm_id": "1236189462", "name": "Flying V", "barrier": null, "highway": null, "ref": null, "address": null, "is_in": null, "place": null, "man_made": null, "other_tags": "\"addr:city\"=>\"Bacarra\",\"addr:province\"=>\"Ilocos Norte\",\"addr:street\"=>\"Manila North Road\",\"amenity\"=>\"fuel\",\"brand\"=>\"Flying V\",\"brand:wikidata\"=>\"Q62275048\"" }, "geometry": { "type": "Point", "coordinates": [ 120.6000482, 18.2883117 ] } },
{ "type": "Feature", "properties": { "fid": 271, "osm_id": "1236230166", "name": null, "barrier": null, "highway": null, "ref": null, "address": null, "is_in": null, "place": null, "man_made": null, "other_tags": "\"leisure\"=>\"playground\"" }, "geometry": { "type": "Point", "coordinates": [ 120.6183756, 18.3332557 ] } },
{ "type": "Feature", "properties": { "fid": 273, "osm_id": "1236230178", "name": "Pasuquin Bakery", "barrier": null, "highway": null, "ref": null, "address": null, "is_in": null, "place": null, "man_made": null, "other_tags": "\"addr:city\"=>\"Pasuquin\",\"addr:street\"=>\"Manila North Road\",\"shop\"=>\"bakery\"" }, "geometry": { "type": "Point", "coordinates": [ 120.6173106, 18.3307 ] } },
{ "type": "Feature", "properties": { "fid": 274, "osm_id": "1236253079", "name": "Shell", "barrier": null, "highway": null, "ref": null, "address": null, "is_in": null, "place": null, "man_made": null, "other_tags": "\"addr:city\"=>\"Pasuquin\",\"addr:postcode\"=>\"2917\",\"addr:province\"=>\"Ilocos Norte\",\"addr:street\"=>\"Manila North Road\",\"amenity\"=>\"fuel\",\"brand\"=>\"Shell\",\"brand:wikidata\"=>\"Q110716465\",\"opening_hours\"=>\"24/7\"" }, "geometry": { "type": "Point", "coordinates": [ 120.6140216, 18.3417009 ] } },
{ "type": "Feature", "properties": { "fid": 275, "osm_id": "1236278878", "name": "Iodized Salt (road-side stores)", "barrier": null, "highway": null, "ref": null, "address": null, "is_in": null, "place": null, "man_made": null, "other_tags": "\"addr:city\"=>\"Pasuquin\",\"amenity\"=>\"marketplace\"" }, "geometry": { "type": "Point", "coordinates": [ 120.6045237, 18.3679027 ] } },
{ "type": "Feature", "properties": { "fid": 280, "osm_id": "1236325522", "name": "Davila Barangay Hall", "barrier": null, "highway": null, "ref": null, "address": null, "is_in": null, "place": null, "man_made": null, "other_tags": "\"amenity\"=>\"townhall\",\"townhall:type\"=>\"village\"" }, "geometry": { "type": "Point", "coordinates": [ 120.577795, 18.4672501 ] } },
{ "type": "Feature", "properties": { "fid": 282, "osm_id": "1236371936", "name": "Multipurpose Hall", "barrier": null, "highway": null, "ref": null, "address": null, "is_in": null, "place": null, "man_made": null, "other_tags": "\"addr:city\"=>\"Burgos\",\"amenity\"=>\"community_centre\",\"building\"=>\"yes\"" }, "geometry": { "type": "Point", "coordinates": [ 120.5714334, 18.4973805 ] } },
{ "type": "Feature", "properties": { "fid": 285, "osm_id": "1236958174", "name": "Pamulinawen Hotel", "barrier": null, "highway": null, "ref": null, "address": null, "is_in": null, "place": null, "man_made": null, "other_tags": "\"addr:city\"=>\"San Nicolas\",\"tourism\"=>\"hotel\"" }, "geometry": { "type": "Point", "coordinates": [ 120.591091, 18.1652852 ] } },
{ "type": "Feature", "properties": { "fid": 286, "osm_id": "1237298253", "name": "Namnma Enterprises", "barrier": null, "highway": null, "ref": null, "address": null, "is_in": null, "place": null, "man_made": null, "other_tags": "\"addr:city\"=>\"Laoag\",\"addr:street\"=>\"General Segundo Avenue\",\"shop\"=>\"animal_health\"" }, "geometry": { "type": "Point", "coordinates": [ 120.5948365, 18.1973342 ] } },
{ "type": "Feature", "properties": { "fid": 287, "osm_id": "1237298255", "name": "Infineon", "barrier": null, "highway": null, "ref": null, "address": null, "is_in": null, "place": null, "man_made": null, "other_tags": "\"addr:city\"=>\"Laoag\",\"addr:street\"=>\"General Segundo Avenue\",\"shop\"=>\"electronics\"" }, "geometry": { "type": "Point", "coordinates": [ 120.5948052, 18.1972323 ] } },
{ "type": "Feature", "properties": { "fid": 288, "osm_id": "1237298263", "name": "Royal Business Club Inc", "barrier": null, "highway": null, "ref": null, "address": null, "is_in": null, "place": null, "man_made": null, "other_tags": "\"addr:city\"=>\"Laoag\",\"addr:street\"=>\"General Segundo Avenue\",\"shop\"=>\"business_center\"" }, "geometry": { "type": "Point", "coordinates": [ 120.5948213, 18.1973019 ] } },
{ "type": "Feature", "properties": { "fid": 289, "osm_id": "1237403460", "name": "Bangui Windmills Viewdeck", "barrier": null, "highway": null, "ref": null, "address": null, "is_in": null, "place": null, "man_made": null, "other_tags": "\"addr:city\"=>\"Bangui\",\"tourism\"=>\"viewpoint\"" }, "geometry": { "type": "Point", "coordinates": [ 120.7029102, 18.5168775 ] } },
{ "type": "Feature", "properties": { "fid": 293, "osm_id": "1237403883", "name": "Shell", "barrier": null, "highway": null, "ref": null, "address": null, "is_in": null, "place": null, "man_made": null, "other_tags": "\"addr:city\"=>\"Burgos\",\"addr:street\"=>\"Manila North Road\",\"amenity\"=>\"fuel\",\"brand\"=>\"Shell\",\"brand:wikidata\"=>\"Q110716465\"" }, "geometry": { "type": "Point", "coordinates": [ 120.6149864, 18.5312793 ] } },
{ "type": "Feature", "properties": { "fid": 295, "osm_id": "1237404128", "name": "Bangui Souvenirs", "barrier": null, "highway": null, "ref": null, "address": null, "is_in": null, "place": null, "man_made": null, "other_tags": "\"addr:city\"=>\"Bangui\",\"amenity\"=>\"shelter\"" }, "geometry": { "type": "Point", "coordinates": [ 120.7035929, 18.5280567 ] } },
{ "type": "Feature", "properties": { "fid": 298, "osm_id": "1237492457", "name": null, "barrier": null, "highway": null, "ref": null, "address": null, "is_in": null, "place": null, "man_made": null, "other_tags": "\"amenity\"=>\"parking\"" }, "geometry": { "type": "Point", "coordinates": [ 120.7027618, 18.5169532 ] } },
{ "type": "Feature", "properties": { "fid": 299, "osm_id": "1237577619", "name": "Utol Health Center", "barrier": null, "highway": null, "ref": null, "address": null, "is_in": null, "place": null, "man_made": null, "other_tags": "\"amenity\"=>\"health_post\"" }, "geometry": { "type": "Point", "coordinates": [ 120.7135126, 18.5145926 ] } },
{ "type": "Feature", "properties": { "fid": 302, "osm_id": "1237612527", "name": "Pagudpud Post Office", "barrier": null, "highway": null, "ref": null, "address": null, "is_in": null, "place": null, "man_made": null, "other_tags": "\"addr:city\"=>\"Pagudpud\",\"addr:postcode\"=>\"2919\",\"amenity\"=>\"post_office\",\"brand\"=>\"PHLPost\",\"brand:facebook\"=>\"https://www.facebook.com/PHLPost\",\"brand:website\"=>\"https://www.phlpost.gov.ph/\",\"brand:wikidata\"=>\"Q1406037\",\"brand:wikipedia\"=>\"en:Philippine Postal Corporation\",\"official_name\"=>\"Philippine Postal Corporation\",\"operator\"=>\"PHLPost\",\"operator:wikidata\"=>\"Q1406037\"" }, "geometry": { "type": "Point", "coordinates": [ 120.7865925, 18.5603845 ] } },
{ "type": "Feature", "properties": { "fid": 303, "osm_id": "1237612573", "name": "Pagudpud Cultura & Sports Complex", "barrier": null, "highway": null, "ref": null, "address": null, "is_in": null, "place": null, "man_made": null, "other_tags": "\"addr:city\"=>\"Pagudpud\",\"amenity\"=>\"community_centre\"" }, "geometry": { "type": "Point", "coordinates": [ 120.7867331, 18.5604744 ] } },
{ "type": "Feature", "properties": { "fid": 304, "osm_id": "1237612622", "name": "Lagundino Carinderia", "barrier": null, "highway": null, "ref": null, "address": null, "is_in": null, "place": null, "man_made": null, "other_tags": "\"addr:city\"=>\"Pagudpud\",\"amenity\"=>\"fast_food\"" }, "geometry": { "type": "Point", "coordinates": [ 120.7866974, 18.5603479 ] } },
{ "type": "Feature", "properties": { "fid": 307, "osm_id": "1238067273", "name": "Petron", "barrier": null, "highway": null, "ref": null, "address": null, "is_in": null, "place": null, "man_made": null, "other_tags": "\"addr:city\"=>\"Bangui\",\"amenity\"=>\"fuel\",\"brand\"=>\"Petron\",\"brand:wikidata\"=>\"Q7179011\"" }, "geometry": { "type": "Point", "coordinates": [ 120.7641886, 18.5360872 ] } },
{ "type": "Feature", "properties": { "fid": 309, "osm_id": "1238067276", "name": "Hall of Justice", "barrier": null, "highway": null, "ref": null, "address": null, "is_in": null, "place": null, "man_made": null, "other_tags": "\"addr:city\"=>\"Bangui\",\"amenity\"=>\"courthouse\"" }, "geometry": { "type": "Point", "coordinates": [ 120.7654577, 18.5371523 ] } },
{ "type": "Feature", "properties": { "fid": 310, "osm_id": "1238067280", "name": "Vulcanizing Shop", "barrier": null, "highway": null, "ref": null, "address": null, "is_in": null, "place": null, "man_made": null, "other_tags": "\"addr:city\"=>\"Bangui\",\"shop\"=>\"vulcanizing\"" }, "geometry": { "type": "Point", "coordinates": [ 120.7637859, 18.5355215 ] } },
{ "type": "Feature", "properties": { "fid": 311, "osm_id": "1238067283", "name": "North Wind Restaurant & Videoke Bar", "barrier": null, "highway": null, "ref": null, "address": null, "is_in": null, "place": null, "man_made": null, "other_tags": "\"addr:city\"=>\"Bangui\",\"amenity\"=>\"restaurant\"" }, "geometry": { "type": "Point", "coordinates": [ 120.7659839, 18.5375598 ] } },
{ "type": "Feature", "properties": { "fid": 312, "osm_id": "1238067287", "name": "Miguel Luis (Pansiteria)", "barrier": null, "highway": null, "ref": null, "address": null, "is_in": null, "place": null, "man_made": null, "other_tags": "\"addr:city\"=>\"Bangui\",\"amenity\"=>\"restaurant\"" }, "geometry": { "type": "Point", "coordinates": [ 120.7643087, 18.5361748 ] } },
{ "type": "Feature", "properties": { "fid": 314, "osm_id": "1238076431", "name": "Pagtarusan Lodge", "barrier": null, "highway": null, "ref": null, "address": null, "is_in": null, "place": null, "man_made": null, "other_tags": "\"addr:city\"=>\"Bangui\",\"tourism\"=>\"hotel\"" }, "geometry": { "type": "Point", "coordinates": [ 120.7682944, 18.5376099 ] } },
{ "type": "Feature", "properties": { "fid": 315, "osm_id": "1238076432", "name": "NorthSide Electrical Supply", "barrier": null, "highway": null, "ref": null, "address": null, "is_in": null, "place": null, "man_made": null, "other_tags": "\"addr:city\"=>\"Bangui\",\"shop\"=>\"hardware\"" }, "geometry": { "type": "Point", "coordinates": [ 120.7676967, 18.5379177 ] } },
{ "type": "Feature", "properties": { "fid": 318, "osm_id": "1238076438", "name": "public comfort room", "barrier": null, "highway": null, "ref": null, "address": null, "is_in": null, "place": null, "man_made": null, "other_tags": "\"amenity\"=>\"toilets\"" }, "geometry": { "type": "Point", "coordinates": [ 120.7888362, 18.5273762 ] } },
{ "type": "Feature", "properties": { "fid": 320, "osm_id": "1238089217", "name": "2N1 Place (eatery)", "barrier": null, "highway": null, "ref": null, "address": null, "is_in": null, "place": null, "man_made": null, "other_tags": "\"addr:city\"=>\"Bangui\",\"amenity\"=>\"restaurant\"" }, "geometry": { "type": "Point", "coordinates": [ 120.7942458, 18.530756 ] } },
{ "type": "Feature", "properties": { "fid": 322, "osm_id": "1238089221", "name": "Shell", "barrier": null, "highway": null, "ref": null, "address": null, "is_in": null, "place": null, "man_made": null, "other_tags": "\"addr:city\"=>\"Bangui\",\"amenity\"=>\"fuel\",\"brand\"=>\"Shell\",\"brand:wikidata\"=>\"Q110716465\"" }, "geometry": { "type": "Point", "coordinates": [ 120.7943401, 18.5306438 ] } },
{ "type": "Feature", "properties": { "fid": 323, "osm_id": "1238089224", "name": "Comfort Room (Shell Station)", "barrier": null, "highway": null, "ref": null, "address": null, "is_in": null, "place": null, "man_made": null, "other_tags": "\"addr:city\"=>\"Bangui\",\"amenity\"=>\"toilets\",\"brand\"=>\"Shell\",\"operator\"=>\"Shell\",\"operator:wikidata\"=>\"Q154950\"" }, "geometry": { "type": "Point", "coordinates": [ 120.7944976, 18.5309116 ] } },
{ "type": "Feature", "properties": { "fid": 324, "osm_id": "1238091039", "name": "Petron", "barrier": null, "highway": null, "ref": null, "address": null, "is_in": null, "place": null, "man_made": null, "other_tags": "\"addr:city\"=>\"Pagudpud\",\"amenity\"=>\"fuel\",\"brand\"=>\"Petron\",\"brand:wikidata\"=>\"Q7179011\"" }, "geometry": { "type": "Point", "coordinates": [ 120.796697, 18.5533857 ] } },
{ "type": "Feature", "properties": { "fid": 325, "osm_id": "1238091041", "name": "KNS", "barrier": null, "highway": null, "ref": null, "address": null, "is_in": null, "place": null, "man_made": null, "other_tags": "\"addr:city\"=>\"Pagudpud\",\"amenity\"=>\"fuel\"" }, "geometry": { "type": "Point", "coordinates": [ 120.7938692, 18.5505316 ] } },
{ "type": "Feature", "properties": { "fid": 326, "osm_id": "1238122774", "name": "Saud Beach Resort & Hotel", "barrier": null, "highway": null, "ref": null, "address": null, "is_in": null, "place": null, "man_made": null, "other_tags": "\"addr:city\"=>\"Pagudpud\",\"leisure\"=>\"beach_resort\",\"tourism\"=>\"hotel\"" }, "geometry": { "type": "Point", "coordinates": [ 120.7860345, 18.5849524 ] } },
{ "type": "Feature", "properties": { "fid": 327, "osm_id": "1238122780", "name": "Maricris Store (Handicraft, Fruits & Vegetables)", "barrier": null, "highway": null, "ref": null, "address": null, "is_in": null, "place": null, "man_made": null, "other_tags": "\"addr:city\"=>\"Pagudpud\",\"shop\"=>\"convenience\"" }, "geometry": { "type": "Point", "coordinates": [ 120.8111624, 18.5699491 ] } },
{ "type": "Feature", "properties": { "fid": 330, "osm_id": "1238122821", "name": "BergBlick Restaurant", "barrier": null, "highway": null, "ref": null, "address": null, "is_in": null, "place": null, "man_made": null, "other_tags": "\"addr:city\"=>\"Pagudpud\",\"amenity\"=>\"restaurant\",\"cuisine\"=>\"swiss\"" }, "geometry": { "type": "Point", "coordinates": [ 120.8031494, 18.575241 ] } },
{ "type": "Feature", "properties": { "fid": 332, "osm_id": "1238122843", "name": null, "barrier": null, "highway": null, "ref": null, "address": null, "is_in": null, "place": null, "man_made": null, "other_tags": "\"addr:town\"=>\"Pagudpud\",\"description\"=>\"Homestay\",\"tourism\"=>\"guest_house\"" }, "geometry": { "type": "Point", "coordinates": [ 120.7886098, 18.5860856 ] } },
{ "type": "Feature", "properties": { "fid": 335, "osm_id": "1238122880", "name": "Male Urinal", "barrier": null, "highway": null, "ref": null, "address": null, "is_in": null, "place": null, "man_made": null, "other_tags": "\"amenity\"=>\"toilets\"" }, "geometry": { "type": "Point", "coordinates": [ 120.7980462, 18.5743073 ] } },
{ "type": "Feature", "properties": { "fid": 336, "osm_id": "1238122903", "name": "Ligaya Barangay Hall", "barrier": null, "highway": null, "ref": null, "address": null, "is_in": null, "place": null, "man_made": null, "other_tags": "\"amenity\"=>\"townhall\"" }, "geometry": { "type": "Point", "coordinates": [ 120.7916444, 18.5554416 ] } },
{ "type": "Feature", "properties": { "fid": 338, "osm_id": "1238146066", "name": "Pagudpud Tricycle Station", "barrier": null, "highway": null, "ref": null, "address": null, "is_in": null, "place": null, "man_made": null, "other_tags": "\"addr:town\"=>\"Pagudpud\",\"amenity\"=>\"taxi\",\"taxi_vehicle\"=>\"auto_rickshaw\"" }, "geometry": { "type": "Point", "coordinates": [ 120.7870469, 18.5598457 ] } },
{ "type": "Feature", "properties": { "fid": 339, "osm_id": "1238146068", "name": "xerox", "barrier": null, "highway": null, "ref": null, "address": null, "is_in": null, "place": null, "man_made": null, "other_tags": "\"shop\"=>\"copyshop\"" }, "geometry": { "type": "Point", "coordinates": [ 120.7883799, 18.5617065 ] } },
{ "type": "Feature", "properties": { "fid": 340, "osm_id": "1238146069", "name": "Dunkin'", "barrier": null, "highway": null, "ref": null, "address": null, "is_in": null, "place": null, "man_made": null, "other_tags": "\"addr:city\"=>\"Pagudpud\",\"alt_name\"=>\"Dunkin' Donuts\",\"amenity\"=>\"fast_food\",\"brand\"=>\"Dunkin'\",\"brand:wikidata\"=>\"Q847743\",\"brand:wikipedia\"=>\"en:Mister Donut\",\"cuisine\"=>\"donut;coffee_shop\",\"shop\"=>\"bakery\",\"takeaway\"=>\"yes\"" }, "geometry": { "type": "Point", "coordinates": [ 120.7866927, 18.5598511 ] } },
{ "type": "Feature", "properties": { "fid": 341, "osm_id": "1238146071", "name": "Bondat Lechon Manok", "barrier": null, "highway": null, "ref": null, "address": null, "is_in": null, "place": null, "man_made": null, "other_tags": "\"addr:city\"=>\"Pagudpud\",\"amenity\"=>\"fast_food\"" }, "geometry": { "type": "Point", "coordinates": [ 120.7882377, 18.5615831 ] } },
{ "type": "Feature", "properties": { "fid": 342, "osm_id": "1238146072", "name": "Sarabo", "barrier": null, "highway": null, "ref": null, "address": null, "is_in": null, "place": null, "man_made": null, "other_tags": "\"addr:city\"=>\"Pagudpud\",\"amenity\"=>\"restaurant\"" }, "geometry": { "type": "Point", "coordinates": [ 120.7935572, 18.5693013 ] } },
{ "type": "Feature", "properties": { "fid": 343, "osm_id": "1238146074", "name": "Poblacion 2 Barangay Hall", "barrier": null, "highway": null, "ref": null, "address": null, "is_in": null, "place": null, "man_made": null, "other_tags": "\"addr:city\"=>\"Pagudpud\",\"amenity\"=>\"townhall\"" }, "geometry": { "type": "Point", "coordinates": [ 120.7914266, 18.5668314 ] } },
{ "type": "Feature", "properties": { "fid": 344, "osm_id": "1238146075", "name": "Currament's Vulcanizing Shop", "barrier": null, "highway": null, "ref": null, "address": null, "is_in": null, "place": null, "man_made": null, "other_tags": "\"addr:barangay\"=>\"Poblacion 2\",\"addr:city\"=>\"Pagudpud\",\"shop\"=>\"vulcanizing\"" }, "geometry": { "type": "Point", "coordinates": [ 120.7876918, 18.5610312 ] } },
{ "type": "Feature", "properties": { "fid": 345, "osm_id": "1238153946", "name": "Aziar I-Mart (with xerox)", "barrier": null, "highway": null, "ref": null, "address": null, "is_in": null, "place": null, "man_made": null, "other_tags": "\"shop\"=>\"convenience\"" }, "geometry": { "type": "Point", "coordinates": [ 120.7867067, 18.5623946 ] } },
{ "type": "Feature", "properties": { "fid": 346, "osm_id": "1238153953", "name": "Toni's Homestay (with aircon)", "barrier": null, "highway": null, "ref": null, "address": null, "is_in": null, "place": null, "man_made": null, "other_tags": "\"addr:city\"=>\"Pagudpud\",\"tourism\"=>\"guest_house\"" }, "geometry": { "type": "Point", "coordinates": [ 120.7887203, 18.5655448 ] } },
{ "type": "Feature", "properties": { "fid": 347, "osm_id": "1238153955", "name": "Shrine of Jude Thaddeus", "barrier": null, "highway": null, "ref": null, "address": null, "is_in": null, "place": null, "man_made": null, "other_tags": "\"addr:city\"=>\"Pagudpud\",\"amenity\"=>\"place_of_worship\",\"religion\"=>\"christian\"" }, "geometry": { "type": "Point", "coordinates": [ 120.786948, 18.5632439 ] } },
{ "type": "Feature", "properties": { "fid": 348, "osm_id": "1238153960", "name": "St. Jude High School", "barrier": null, "highway": null, "ref": null, "address": null, "is_in": null, "place": null, "man_made": null, "other_tags": "\"addr:city\"=>\"Pagudpud\",\"amenity\"=>\"school\"" }, "geometry": { "type": "Point", "coordinates": [ 120.7868691, 18.5631067 ] } },
{ "type": "Feature", "properties": { "fid": 353, "osm_id": "1304643027", "name": "San Agustin Barangay Hall", "barrier": null, "highway": null, "ref": null, "address": null, "is_in": null, "place": null, "man_made": null, "other_tags": "\"amenity\"=>\"townhall\"" }, "geometry": { "type": "Point", "coordinates": [ 120.6441255, 18.1608902 ] } },
{ "type": "Feature", "properties": { "fid": 354, "osm_id": "1304643035", "name": "San Francisco Barangay Hall", "barrier": null, "highway": null, "ref": null, "address": null, "is_in": null, "place": null, "man_made": null, "other_tags": "\"amenity\"=>\"townhall\",\"townhall:type\"=>\"barangay\"" }, "geometry": { "type": "Point", "coordinates": [ 120.647884, 18.1583553 ] } },
{ "type": "Feature", "properties": { "fid": 355, "osm_id": "1304643039", "name": "San Joaquin Barangay Hall", "barrier": null, "highway": null, "ref": null, "address": null, "is_in": null, "place": null, "man_made": null, "other_tags": "\"amenity\"=>\"townhall\"" }, "geometry": { "type": "Point", "coordinates": [ 120.6429518, 18.161684 ] } },
{ "type": "Feature", "properties": { "fid": 356, "osm_id": "1304643042", "name": "Santa Barbara Barangay Hall", "barrier": null, "highway": null, "ref": null, "address": null, "is_in": null, "place": null, "man_made": null, "other_tags": "\"amenity\"=>\"townhall\"" }, "geometry": { "type": "Point", "coordinates": [ 120.6462214, 18.1611127 ] } },
{ "type": "Feature", "properties": { "fid": 357, "osm_id": "1332544955", "name": "Patapat Viaduct", "barrier": null, "highway": null, "ref": null, "address": null, "is_in": null, "place": null, "man_made": null, "other_tags": "\"tourism\"=>\"viewpoint\"" }, "geometry": { "type": "Point", "coordinates": [ 120.8979534, 18.571845 ] } },
{ "type": "Feature", "properties": { "fid": 358, "osm_id": "1332544958", "name": "Municipal Beach Park", "barrier": null, "highway": null, "ref": null, "address": null, "is_in": null, "place": null, "man_made": null, "other_tags": "\"addr:city\"=>\"Pagudpud\",\"leisure\"=>\"beach_resort\"" }, "geometry": { "type": "Point", "coordinates": [ 120.786175, 18.588841 ] } },
{ "type": "Feature", "properties": { "fid": 359, "osm_id": "1491146076", "name": "Living Firing Range Area", "barrier": null, "highway": null, "ref": null, "address": null, "is_in": null, "place": null, "man_made": null, "other_tags": "\"amenity\"=>\"hunting_stand\"" }, "geometry": { "type": "Point", "coordinates": [ 120.5212114, 18.1633609 ] } },
{ "type": "Feature", "properties": { "fid": 360, "osm_id": "1491146203", "name": "Paint Ball Shooting Sport Activities", "barrier": null, "highway": null, "ref": null, "address": null, "is_in": null, "place": null, "man_made": null, "other_tags": "\"amenity\"=>\"hunting_stand\"" }, "geometry": { "type": "Point", "coordinates": [ 120.5232069, 18.1613021 ] } },
{ "type": "Feature", "properties": { "fid": 361, "osm_id": "1491146713", "name": "ATV Sport Activities", "barrier": null, "highway": null, "ref": null, "address": null, "is_in": null, "place": null, "man_made": null, "other_tags": "\"leisure\"=>\"sports_centre\"" }, "geometry": { "type": "Point", "coordinates": [ 120.5213621, 18.1588652 ] } },
{ "type": "Feature", "properties": { "fid": 365, "osm_id": "1492449860", "name": "Mira de Polaris Hotel", "barrier": null, "highway": null, "ref": null, "address": null, "is_in": null, "place": null, "man_made": null, "other_tags": "\"tourism\"=>\"hotel\"" }, "geometry": { "type": "Point", "coordinates": [ 120.5907778, 18.1764819 ] } },
{ "type": "Feature", "properties": { "fid": 366, "osm_id": "1492450477", "name": "Astronic Servitek", "barrier": null, "highway": null, "ref": null, "address": null, "is_in": null, "place": null, "man_made": null, "other_tags": "\"shop\"=>\"car_repair\"" }, "geometry": { "type": "Point", "coordinates": [ 120.5912016, 18.1766145 ] } },
{ "type": "Feature", "properties": { "fid": 367, "osm_id": "1492461856", "name": "Corpuz Drug Store", "barrier": null, "highway": null, "ref": null, "address": null, "is_in": null, "place": null, "man_made": null, "other_tags": "\"addr:street\"=>\"Josefa Llanes Escoda National Highway\",\"amenity\"=>\"pharmacy\"" }, "geometry": { "type": "Point", "coordinates": [ 120.597891, 18.171747 ] } },
{ "type": "Feature", "properties": { "fid": 368, "osm_id": "1492497952", "name": "Fariñas - Laoag Terminal", "barrier": null, "highway": null, "ref": null, "address": null, "is_in": null, "place": null, "man_made": null, "other_tags": "\"amenity\"=>\"bus_station\",\"bus\"=>\"yes\",\"public_transport\"=>\"station\"" }, "geometry": { "type": "Point", "coordinates": [ 120.5911694, 18.196037 ] } },
{ "type": "Feature", "properties": { "fid": 369, "osm_id": "1492501262", "name": "RCJ Bus Line - Laoag Terminal", "barrier": null, "highway": null, "ref": null, "address": null, "is_in": null, "place": null, "man_made": null, "other_tags": "\"amenity\"=>\"bus_station\",\"bus\"=>\"yes\",\"public_transport\"=>\"station\"" }, "geometry": { "type": "Point", "coordinates": [ 120.5907992, 18.1960574 ] } },
{ "type": "Feature", "properties": { "fid": 370, "osm_id": "1492504137", "name": "Data Center College Laoag", "barrier": null, "highway": null, "ref": null, "address": null, "is_in": null, "place": null, "man_made": null, "other_tags": "\"amenity\"=>\"college\"" }, "geometry": { "type": "Point", "coordinates": [ 120.5906815, 18.1948804 ] } },
{ "type": "Feature", "properties": { "fid": 371, "osm_id": "1492513906", "name": "Globe", "barrier": null, "highway": null, "ref": null, "address": null, "is_in": null, "place": null, "man_made": null, "other_tags": "\"alt_name\"=>\"Globe Telecom\",\"branch\"=>\"SM Hypermarket branch\",\"brand\"=>\"Globe\",\"brand:wikidata\"=>\"Q3543983\",\"shop\"=>\"telecommunication\"" }, "geometry": { "type": "Point", "coordinates": [ 120.5929705, 18.1949439 ] } },
{ "type": "Feature", "properties": { "fid": 372, "osm_id": "1493326854", "name": "Gov. Roque Ablan Sr. Memorial Hospital", "barrier": null, "highway": null, "ref": null, "address": null, "is_in": null, "place": null, "man_made": null, "other_tags": "\"addr:city\"=>\"Laoag City, Ilocos Norte\",\"amenity\"=>\"hospital\",\"description\"=>\"(077) 772 0303 Phone\n\",\"emergency\"=>\"no\",\"healthcare\"=>\"hospital\",\"opening_hours\"=>\"24/7\"" }, "geometry": { "type": "Point", "coordinates": [ 120.6017618, 18.1994456 ] } },
{ "type": "Feature", "properties": { "fid": 373, "osm_id": "1493329258", "name": "Carmelite Monastery", "barrier": null, "highway": null, "ref": null, "address": null, "is_in": null, "place": null, "man_made": null, "other_tags": "\"amenity\"=>\"place_of_worship\",\"denomination\"=>\"roman_catholic\",\"religion\"=>\"christian\"" }, "geometry": { "type": "Point", "coordinates": [ 120.6000223, 18.1997386 ] } },
{ "type": "Feature", "properties": { "fid": 374, "osm_id": "1493330639", "name": "Bishop Residence", "barrier": null, "highway": null, "ref": null, "address": null, "is_in": null, "place": null, "man_made": null, "other_tags": "\"amenity\"=>\"place_of_worship\",\"denomination\"=>\"roman_catholic\",\"religion\"=>\"christian\"" }, "geometry": { "type": "Point", "coordinates": [ 120.599212, 18.2002535 ] } },
{ "type": "Feature", "properties": { "fid": 375, "osm_id": "1498870591", "name": "Renzo Hotel", "barrier": null, "highway": null, "ref": null, "address": null, "is_in": null, "place": null, "man_made": null, "other_tags": "\"tourism\"=>\"hotel\"" }, "geometry": { "type": "Point", "coordinates": [ 120.5977302, 18.193334 ] } },
{ "type": "Feature", "properties": { "fid": 376, "osm_id": "1498886984", "name": "Maybank", "barrier": null, "highway": null, "ref": null, "address": null, "is_in": null, "place": null, "man_made": null, "other_tags": "\"addr:street\"=>\"Don Villanueva Street\",\"amenity\"=>\"bank\",\"brand\"=>\"Maybank\",\"brand:wikidata\"=>\"Q1364018\",\"brand:wikipedia\"=>\"en:Maybank\"" }, "geometry": { "type": "Point", "coordinates": [ 120.5954232, 18.1943023 ] } },
{ "type": "Feature", "properties": { "fid": 377, "osm_id": "1569319928", "name": "Isabel Suites", "barrier": null, "highway": null, "ref": null, "address": null, "is_in": null, "place": null, "man_made": null, "other_tags": "\"tourism\"=>\"hotel\"" }, "geometry": { "type": "Point", "coordinates": [ 120.5947907, 18.1975895 ] } },
{ "type": "Feature", "properties": { "fid": 378, "osm_id": "1569371037", "name": "Bantay Abot Cave", "barrier": null, "highway": null, "ref": null, "address": null, "is_in": null, "place": null, "man_made": null, "other_tags": "\"addr:city\"=>\"Pagudpud\",\"addr:postcode\"=>\"2919\",\"addr:street\"=>\"Balaoi-Aryargo Road\",\"tourism\"=>\"viewpoint\"" }, "geometry": { "type": "Point", "coordinates": [ 120.8690592, 18.6142517 ] } },
{ "type": "Feature", "properties": { "fid": 379, "osm_id": "1569371040", "name": "Timmangtang Rock", "barrier": null, "highway": null, "ref": null, "address": null, "is_in": null, "place": null, "man_made": null, "other_tags": "\"tourism\"=>\"attraction\"" }, "geometry": { "type": "Point", "coordinates": [ 120.8705808, 18.6084888 ] } },
{ "type": "Feature", "properties": { "fid": 380, "osm_id": "1576527683", "name": "Petron", "barrier": null, "highway": null, "ref": null, "address": null, "is_in": null, "place": null, "man_made": null, "other_tags": "\"amenity\"=>\"fuel\",\"brand\"=>\"Petron\"" }, "geometry": { "type": "Point", "coordinates": [ 120.6278639, 18.1258975 ] } },
{ "type": "Feature", "properties": { "fid": 381, "osm_id": "1576533287", "name": null, "barrier": null, "highway": null, "ref": null, "address": null, "is_in": null, "place": null, "man_made": null, "other_tags": "\"amenity\"=>\"toilets\"" }, "geometry": { "type": "Point", "coordinates": [ 120.5635767, 18.0649276 ] } },
{ "type": "Feature", "properties": { "fid": 382, "osm_id": "1727886280", "name": "Agua Grande", "barrier": null, "highway": null, "ref": null, "address": null, "is_in": null, "place": null, "man_made": null, "other_tags": "\"addr:city\"=>\"Pagudpud\",\"addr:postcode\"=>\"2919\",\"addr:street\"=>\"Manila North Road\",\"tourism\"=>\"picnic_site\"" }, "geometry": { "type": "Point", "coordinates": [ 120.9005452, 18.5704951 ] } },
{ "type": "Feature", "properties": { "fid": 383, "osm_id": "1727886306", "name": "Patapat Grotto", "barrier": null, "highway": null, "ref": null, "address": null, "is_in": null, "place": null, "man_made": null, "other_tags": "\"addr:city\"=>\"Pagudpud\",\"addr:postcode\"=>\"2919\",\"addr:street\"=>\"Manila North Road\",\"tourism\"=>\"viewpoint\"" }, "geometry": { "type": "Point", "coordinates": [ 120.9048257, 18.565662 ] } },
{ "type": "Feature", "properties": { "fid": 384, "osm_id": "1727887224", "name": "Shell", "barrier": null, "highway": null, "ref": null, "address": null, "is_in": null, "place": null, "man_made": null, "other_tags": "\"amenity\"=>\"fuel\",\"brand\"=>\"Shell\",\"brand:wikidata\"=>\"Q110716465\"" }, "geometry": { "type": "Point", "coordinates": [ 120.7956445, 18.573011 ] } },
{ "type": "Feature", "properties": { "fid": 385, "osm_id": "1727887226", "name": "Petron", "barrier": null, "highway": null, "ref": null, "address": null, "is_in": null, "place": null, "man_made": null, "other_tags": "\"amenity\"=>\"fuel\",\"brand\"=>\"Petron\",\"brand:wikidata\"=>\"Q7179011\"" }, "geometry": { "type": "Point", "coordinates": [ 120.7987172, 18.5746208 ] } },
{ "type": "Feature", "properties": { "fid": 386, "osm_id": "1727906917", "name": "Villa Del Mar", "barrier": null, "highway": null, "ref": null, "address": null, "is_in": null, "place": null, "man_made": null, "other_tags": "\"tourism\"=>\"guest_house\"" }, "geometry": { "type": "Point", "coordinates": [ 120.7844415, 18.5816459 ] } },
{ "type": "Feature", "properties": { "fid": 387, "osm_id": "1727906918", "name": "Flying V", "barrier": null, "highway": null, "ref": null, "address": null, "is_in": null, "place": null, "man_made": null, "other_tags": "\"amenity\"=>\"fuel\",\"brand\"=>\"Flying V\",\"brand:wikidata\"=>\"Q62275048\"" }, "geometry": { "type": "Point", "coordinates": [ 120.7952063, 18.5318863 ] } },
{ "type": "Feature", "properties": { "fid": 395, "osm_id": "1909739049", "name": null, "barrier": null, "highway": null, "ref": null, "address": null, "is_in": null, "place": null, "man_made": null, "other_tags": "\"amenity\"=>\"parking\",\"parking\"=>\"surface\"" }, "geometry": { "type": "Point", "coordinates": [ 120.9002744, 18.5703863 ] } },
{ "type": "Feature", "properties": { "fid": 397, "osm_id": "1911321570", "name": "Kapurpurawan Picnic Site", "barrier": null, "highway": null, "ref": null, "address": null, "is_in": null, "place": null, "man_made": null, "other_tags": "\"tourism\"=>\"picnic_site\"" }, "geometry": { "type": "Point", "coordinates": [ 120.6497577, 18.5370647 ] } },
{ "type": "Feature", "properties": { "fid": 398, "osm_id": "1911335639", "name": "Kangkang Windmill Cafe", "barrier": null, "highway": null, "ref": null, "address": null, "is_in": null, "place": null, "man_made": null, "other_tags": "\"addr:city\"=>\"Bangui\",\"addr:postcode\"=>\"2920\",\"amenity\"=>\"cafe\"" }, "geometry": { "type": "Point", "coordinates": [ 120.6920794, 18.5287762 ] } },
{ "type": "Feature", "properties": { "fid": 399, "osm_id": "1911335673", "name": null, "barrier": null, "highway": null, "ref": null, "address": null, "is_in": null, "place": null, "man_made": null, "other_tags": "\"amenity\"=>\"toilets\"" }, "geometry": { "type": "Point", "coordinates": [ 120.6922936, 18.5286962 ] } },
{ "type": "Feature", "properties": { "fid": 402, "osm_id": "1914520397", "name": "Luzon's Northernmost Tip", "barrier": null, "highway": null, "ref": null, "address": null, "is_in": null, "place": null, "man_made": null, "other_tags": "\"survey:date\"=>\"2011-12-28\",\"tourism\"=>\"viewpoint\"" }, "geometry": { "type": "Point", "coordinates": [ 120.846297, 18.6512422 ] } },
{ "type": "Feature", "properties": { "fid": 404, "osm_id": "2092900423", "name": "Northridge Beach Resort", "barrier": null, "highway": null, "ref": null, "address": null, "is_in": null, "place": null, "man_made": null, "other_tags": "\"tourism\"=>\"hotel\"" }, "geometry": { "type": "Point", "coordinates": [ 120.7830587, 18.5809305 ] } },
{ "type": "Feature", "properties": { "fid": 405, "osm_id": "2094498241", "name": "Diaz Ancestral Home", "barrier": null, "highway": null, "ref": null, "address": null, "is_in": null, "place": null, "man_made": null, "other_tags": "\"tourism\"=>\"attraction\"" }, "geometry": { "type": "Point", "coordinates": [ 120.5197482, 18.0588391 ] } },
{ "type": "Feature", "properties": { "fid": 406, "osm_id": "2094523911", "name": "Authentic Miki/Empanada", "barrier": null, "highway": null, "ref": null, "address": null, "is_in": null, "place": null, "man_made": null, "other_tags": "\"amenity\"=>\"fast_food\"" }, "geometry": { "type": "Point", "coordinates": [ 120.5222512, 18.0606752 ] } },
{ "type": "Feature", "properties": { "fid": 407, "osm_id": "2158581795", "name": null, "barrier": null, "highway": null, "ref": null, "address": null, "is_in": null, "place": null, "man_made": null, "other_tags": "\"leisure\"=>\"swimming_pool\",\"sport\"=>\"swimming\"" }, "geometry": { "type": "Point", "coordinates": [ 120.5850795, 18.4906164 ] } },
{ "type": "Feature", "properties": { "fid": 408, "osm_id": "2158581798", "name": null, "barrier": null, "highway": null, "ref": null, "address": null, "is_in": null, "place": null, "man_made": null, "other_tags": "\"leisure\"=>\"playground\"" }, "geometry": { "type": "Point", "coordinates": [ 120.5854764, 18.4905349 ] } },
{ "type": "Feature", "properties": { "fid": 409, "osm_id": "2300338959", "name": "Pinili Shell", "barrier": null, "highway": null, "ref": null, "address": null, "is_in": null, "place": null, "man_made": null, "other_tags": "\"amenity\"=>\"fuel\",\"brand\"=>\"Shell\",\"is_in:town\"=>\"Pinili\"" }, "geometry": { "type": "Point", "coordinates": [ 120.5225679, 17.9536932 ] } },
{ "type": "Feature", "properties": { "fid": 410, "osm_id": "2304458814", "name": "Saint Elizabeth Elementary School", "barrier": null, "highway": null, "ref": null, "address": null, "is_in": null, "place": null, "man_made": null, "other_tags": "\"amenity\"=>\"school\"" }, "geometry": { "type": "Point", "coordinates": [ 120.4752962, 17.9275888 ] } },
{ "type": "Feature", "properties": { "fid": 411, "osm_id": "2310504750", "name": "Motocross Racetrack", "barrier": null, "highway": null, "ref": null, "address": null, "is_in": null, "place": null, "man_made": null, "other_tags": "\"tourism\"=>\"information\"" }, "geometry": { "type": "Point", "coordinates": [ 120.5718534, 18.4811634 ] } },
{ "type": "Feature", "properties": { "fid": 652, "osm_id": "2494310820", "name": null, "barrier": null, "highway": null, "ref": null, "address": null, "is_in": null, "place": null, "man_made": null, "other_tags": "\"amenity\"=>\"toilets\"" }, "geometry": { "type": "Point", "coordinates": [ 120.5023964, 17.9950957 ] } },
{ "type": "Feature", "properties": { "fid": 732, "osm_id": "2583161197", "name": "Shell", "barrier": null, "highway": null, "ref": null, "address": null, "is_in": null, "place": null, "man_made": null, "other_tags": "\"amenity\"=>\"fuel\",\"brand\"=>\"Shell\"" }, "geometry": { "type": "Point", "coordinates": [ 120.5025523, 17.9949864 ] } },
{ "type": "Feature", "properties": { "fid": 744, "osm_id": "2657315373", "name": "Flying V Bacarra 2", "barrier": null, "highway": null, "ref": null, "address": null, "is_in": null, "place": null, "man_made": null, "other_tags": "\"amenity\"=>\"fuel\",\"brand\"=>\"Flying V\"" }, "geometry": { "type": "Point", "coordinates": [ 120.6222988, 18.2488393 ] } },
{ "type": "Feature", "properties": { "fid": 746, "osm_id": "2775152502", "name": "Kapurpurawan Rock Formation", "barrier": null, "highway": null, "ref": null, "address": null, "is_in": null, "place": null, "man_made": null, "other_tags": "\"tourism\"=>\"attraction\"" }, "geometry": { "type": "Point", "coordinates": [ 120.653628, 18.5387885 ] } },
{ "type": "Feature", "properties": { "fid": 759, "osm_id": "2993960870", "name": "Gaoat Hospital", "barrier": null, "highway": null, "ref": null, "address": null, "is_in": null, "place": null, "man_made": null, "other_tags": "\"amenity\"=>\"hospital\"" }, "geometry": { "type": "Point", "coordinates": [ 120.5653316, 18.050052 ] } },
{ "type": "Feature", "properties": { "fid": 760, "osm_id": "3045816733", "name": "Viven Hotel", "barrier": null, "highway": null, "ref": null, "address": null, "is_in": null, "place": null, "man_made": null, "other_tags": "\"tourism\"=>\"hotel\"" }, "geometry": { "type": "Point", "coordinates": [ 120.590628, 18.1799094 ] } },
{ "type": "Feature", "properties": { "fid": 761, "osm_id": "3099895284", "name": "Kingfisher surf and beach resort", "barrier": null, "highway": null, "ref": null, "address": null, "is_in": null, "place": null, "man_made": null, "other_tags": "\"addr:city\"=>\"Pagudpud\",\"addr:street\"=>\"Sitio Ayoyo, Brgy. Caparispisan\",\"tourism\"=>\"hotel\",\"website\"=>\"http://www.kingfisherbeach.com\"" }, "geometry": { "type": "Point", "coordinates": [ 120.7995324, 18.6328804 ] } },
{ "type": "Feature", "properties": { "fid": 762, "osm_id": "3099895285", "name": "Kingfisher Restaurant", "barrier": null, "highway": null, "ref": null, "address": null, "is_in": null, "place": null, "man_made": null, "other_tags": "\"amenity\"=>\"restaurant\"" }, "geometry": { "type": "Point", "coordinates": [ 120.7996558, 18.6327407 ] } },
{ "type": "Feature", "properties": { "fid": 763, "osm_id": "3099895286", "name": "Kingfisher Volleyball Court", "barrier": null, "highway": null, "ref": null, "address": null, "is_in": null, "place": null, "man_made": null, "other_tags": "\"leisure\"=>\"pitch\",\"sport\"=>\"volleyball\"" }, "geometry": { "type": "Point", "coordinates": [ 120.7995056, 18.6328582 ] } },
{ "type": "Feature", "properties": { "fid": 764, "osm_id": "3099895287", "name": "Kingfisher Beach Bar", "barrier": null, "highway": null, "ref": null, "address": null, "is_in": null, "place": null, "man_made": null, "other_tags": "\"amenity\"=>\"bar\"" }, "geometry": { "type": "Point", "coordinates": [ 120.7994406, 18.6329808 ] } },
{ "type": "Feature", "properties": { "fid": 765, "osm_id": "3099896007", "name": "Sari-sari store", "barrier": null, "highway": null, "ref": null, "address": null, "is_in": null, "place": null, "man_made": null, "other_tags": "\"shop\"=>\"convenience\"" }, "geometry": { "type": "Point", "coordinates": [ 120.7973836, 18.5738753 ] } },
{ "type": "Feature", "properties": { "fid": 766, "osm_id": "3099897033", "name": null, "barrier": null, "highway": null, "ref": null, "address": null, "is_in": null, "place": null, "man_made": null, "other_tags": "\"amenity\"=>\"restaurant\"" }, "geometry": { "type": "Point", "coordinates": [ 120.8091347, 18.6339606 ] } },
{ "type": "Feature", "properties": { "fid": 767, "osm_id": "3099897034", "name": null, "barrier": null, "highway": null, "ref": null, "address": null, "is_in": null, "place": null, "man_made": null, "other_tags": "\"tourism\"=>\"hotel\"" }, "geometry": { "type": "Point", "coordinates": [ 120.8090999, 18.6335565 ] } },
{ "type": "Feature", "properties": { "fid": 769, "osm_id": "3167933254", "name": "BDO", "barrier": null, "highway": null, "ref": null, "address": null, "is_in": null, "place": null, "man_made": null, "other_tags": "\"addr:city\"=>\"Batac\",\"addr:postcode\"=>\"2906\",\"addr:street\"=>\"Washington Street\",\"alt_name\"=>\"Banco de Oro\",\"amenity\"=>\"bank\",\"brand\"=>\"BDO\",\"brand:wikidata\"=>\"Q4854129\",\"operator\"=>\"BDO Unibank\"" }, "geometry": { "type": "Point", "coordinates": [ 120.5649972, 18.0565848 ] } },
{ "type": "Feature", "properties": { "fid": 770, "osm_id": "3168128061", "name": null, "barrier": null, "highway": null, "ref": null, "address": null, "is_in": null, "place": null, "man_made": null, "other_tags": "\"amenity\"=>\"atm\",\"brand\"=>\"BPI\",\"brand:wikidata\"=>\"Q2501256\",\"network\"=>\"ExpressNet\",\"official_name\"=>\"Bank of the Philippine Islands\",\"operator\"=>\"BPI\",\"operator:wikidata\"=>\"Q2501256\"" }, "geometry": { "type": "Point", "coordinates": [ 120.5920849, 18.1964098 ] } },
{ "type": "Feature", "properties": { "fid": 771, "osm_id": "3237460308", "name": "RCBC", "barrier": null, "highway": null, "ref": null, "address": null, "is_in": null, "place": null, "man_made": null, "other_tags": "\"amenity\"=>\"atm\",\"brand\"=>\"RCBC\",\"brand:wikidata\"=>\"Q7339070\",\"official_name\"=>\"Rizal Commercial Banking Corporation\",\"operator\"=>\"RCBC\",\"operator:wikidata\"=>\"Q7339070\"" }, "geometry": { "type": "Point", "coordinates": [ 120.5623519, 18.054675 ] } },
{ "type": "Feature", "properties": { "fid": 772, "osm_id": "3250546314", "name": "Citycup Cafe", "barrier": null, "highway": null, "ref": null, "address": null, "is_in": null, "place": null, "man_made": null, "other_tags": "\"addr:city\"=>\"Laoag\",\"addr:street\"=>\"J. P. Rizal Avenue\",\"amenity\"=>\"restaurant\"" }, "geometry": { "type": "Point", "coordinates": [ 120.5906586, 18.197052 ] } },
{ "type": "Feature", "properties": { "fid": 773, "osm_id": "3250739370", "name": "Balay da Blas", "barrier": null, "highway": null, "ref": null, "address": null, "is_in": null, "place": null, "man_made": null, "other_tags": "\"addr:city\"=>\"Laoag\",\"addr:housenumber\"=>\"10\",\"addr:street\"=>\"D. L. Giron Street\",\"tourism\"=>\"hotel\"" }, "geometry": { "type": "Point", "coordinates": [ 120.5939155, 18.2030953 ] } },
{ "type": "Feature", "properties": { "fid": 774, "osm_id": "3250739371", "name": "Saramsam", "barrier": null, "highway": null, "ref": null, "address": null, "is_in": null, "place": null, "man_made": null, "other_tags": "\"addr:city\"=>\"Laoag\",\"addr:housenumber\"=>\"10\",\"addr:street\"=>\"D. L. Giron Street\",\"amenity\"=>\"restaurant\",\"cuisine\"=>\"regional\"" }, "geometry": { "type": "Point", "coordinates": [ 120.5938475, 18.2030188 ] } },
{ "type": "Feature", "properties": { "fid": 775, "osm_id": "3250739372", "name": "Isabel Suites", "barrier": null, "highway": null, "ref": null, "address": null, "is_in": null, "place": null, "man_made": null, "other_tags": "\"addr:city\"=>\"Laoag\",\"addr:street\"=>\"General Segundo Avenue\",\"tourism\"=>\"hotel\",\"wheelchair\"=>\"limited\"" }, "geometry": { "type": "Point", "coordinates": [ 120.5950176, 18.1975453 ] } },
{ "type": "Feature", "properties": { "fid": 776, "osm_id": "3250739373", "name": "Hotel Tiffany", "barrier": null, "highway": null, "ref": null, "address": null, "is_in": null, "place": null, "man_made": null, "other_tags": "\"addr:city\"=>\"Laoag\",\"addr:street\"=>\"General Segundo Avenue\",\"tourism\"=>\"hotel\"" }, "geometry": { "type": "Point", "coordinates": [ 120.5946001, 18.1967859 ] } },
{ "type": "Feature", "properties": { "fid": 782, "osm_id": "3329566888", "name": null, "barrier": null, "highway": null, "ref": null, "address": null, "is_in": null, "place": null, "man_made": null, "other_tags": "\"shop\"=>\"beverages\"" }, "geometry": { "type": "Point", "coordinates": [ 120.9049991, 18.5660905 ] } },
{ "type": "Feature", "properties": { "fid": 787, "osm_id": "3329566946", "name": "Casa Victoria", "barrier": null, "highway": null, "ref": null, "address": null, "is_in": null, "place": null, "man_made": null, "other_tags": "\"tourism\"=>\"hotel\"" }, "geometry": { "type": "Point", "coordinates": [ 120.78471, 18.5819826 ] } },
{ "type": "Feature", "properties": { "fid": 791, "osm_id": "3329661685", "name": null, "barrier": null, "highway": null, "ref": null, "address": null, "is_in": null, "place": null, "man_made": null, "other_tags": "\"amenity\"=>\"toilets\"" }, "geometry": { "type": "Point", "coordinates": [ 120.6267644, 18.5166218 ] } },
{ "type": "Feature", "properties": { "fid": 794, "osm_id": "3329778178", "name": "Eagle's Nest", "barrier": null, "highway": null, "ref": null, "address": null, "is_in": null, "place": null, "man_made": null, "other_tags": "\"amenity\"=>\"restaurant\",\"cuisine\"=>\"regional\"" }, "geometry": { "type": "Point", "coordinates": [ 120.6024393, 18.2094882 ] } },
{ "type": "Feature", "properties": { "fid": 795, "osm_id": "3329778179", "name": "Chicken Ati-atihan", "barrier": null, "highway": null, "ref": null, "address": null, "is_in": null, "place": null, "man_made": null, "other_tags": "\"amenity\"=>\"restaurant\"" }, "geometry": { "type": "Point", "coordinates": [ 120.5988719, 18.2038675 ] } },
{ "type": "Feature", "properties": { "fid": 796, "osm_id": "3329778180", "name": "The Nail Lounge Laoag City", "barrier": null, "highway": null, "ref": null, "address": null, "is_in": null, "place": null, "man_made": null, "other_tags": "\"addr:city\"=>\"Laoag\",\"addr:postcode\"=>\"2900\",\"addr:province\"=>\"Ilocos Norte\",\"addr:street\"=>\"General Segundo Avenue\",\"beauty\"=>\"nails\",\"shop\"=>\"beauty\"" }, "geometry": { "type": "Point", "coordinates": [ 120.5973592, 18.2015845 ] } },
{ "type": "Feature", "properties": { "fid": 797, "osm_id": "3329778181", "name": "Ilocos Stop", "barrier": null, "highway": null, "ref": null, "address": null, "is_in": null, "place": null, "man_made": null, "other_tags": "\"shop\"=>\"convenience\"" }, "geometry": { "type": "Point", "coordinates": [ 120.597259, 18.2013872 ] } },
{ "type": "Feature", "properties": { "fid": 798, "osm_id": "3329778182", "name": "Pamulinawen", "barrier": null, "highway": null, "ref": null, "address": null, "is_in": null, "place": null, "man_made": null, "other_tags": "\"amenity\"=>\"restaurant\"" }, "geometry": { "type": "Point", "coordinates": [ 120.5990007, 18.200973 ] } },
{ "type": "Feature", "properties": { "fid": 800, "osm_id": "3329778191", "name": "Laoag - Vigan", "barrier": null, "highway": null, "ref": null, "address": null, "is_in": null, "place": null, "man_made": null, "other_tags": "\"amenity\"=>\"bus_station\",\"bus\"=>\"yes\",\"public_transport\"=>\"station\"" }, "geometry": { "type": "Point", "coordinates": [ 120.5941728, 18.1964854 ] } },
{ "type": "Feature", "properties": { "fid": 801, "osm_id": "3329778192", "name": "Laoag - Pagudpud", "barrier": null, "highway": null, "ref": null, "address": null, "is_in": null, "place": null, "man_made": null, "other_tags": "\"amenity\"=>\"bus_station\",\"bus\"=>\"yes\",\"public_transport\"=>\"station\"" }, "geometry": { "type": "Point", "coordinates": [ 120.5938001, 18.1966893 ] } },
{ "type": "Feature", "properties": { "fid": 803, "osm_id": "3329779596", "name": "Cockhouse", "barrier": null, "highway": null, "ref": null, "address": null, "is_in": null, "place": null, "man_made": null, "other_tags": "\"amenity\"=>\"bar\"" }, "geometry": { "type": "Point", "coordinates": [ 120.5909515, 18.195442 ] } },